[
  {
    "latitude": 42.5972683,
    "longitude": -83.3760523,
    "name": "Orchard Lake",
    "type": "LakePond",
    "natural": "water",
    "water": "lake",
    "wikipedia": "en:Orchard Lake (Michigan)",
    "uniqueType": "lakes"
  },
  {
    "latitude": 46.5858777,
    "longitude": -90.1868326,
    "name": "Spirit Lake",
    "natural": "water",
    "water": "lake",
    "NHD_date": "Mon Mar 03 00:00:00 CST 2003",
    "uniqueType": "lakes"
  },
  {
    "latitude": 46.2787303,
    "longitude": -89.5647088,
    "name": "Pomeroy Lake",
    "natural": "water",
    "water": "lake",
    "NHD_date": "Thu Jul 29 00:00:00 CDT 2004",
    "uniqueType": "lakes"
  },
  {
    "latitude": 46.5271935,
    "longitude": -88.6848687,
    "name": "Pequet Lake",
    "natural": "water",
    "water": "lake",
    "NHD_date": "Mon Jan 12 00:00:00 CST 2004",
    "uniqueType": "lakes"
  },
  {
    "latitude": 46.2704834,
    "longitude": -89.4931412,
    "name": "Langford Lake",
    "natural": "water",
    "water": "lake",
    "NHD_date": "Fri Aug 13 00:00:00 CDT 2004",
    "uniqueType": "lakes"
  },
  {
    "latitude": 46.3582493,
    "longitude": -89.7513537,
    "name": "Heart Lake",
    "natural": "water",
    "water": "lake",
    "NHD_date": "Thu Jul 29 00:00:00 CDT 2004",
    "uniqueType": "lakes"
  },
  {
    "latitude": 46.2261698,
    "longitude": -89.5460021,
    "name": "Roach Lake",
    "natural": "water",
    "water": "lake",
    "NHD_date": "Thu Jul 29 00:00:00 CDT 2004",
    "uniqueType": "lakes"
  },
  {
    "latitude": 46.3286874,
    "longitude": -90.0507448,
    "name": "Black River Lake",
    "natural": "water",
    "water": "lake",
    "NHD_date": "Thu Jul 29 00:00:00 CDT 2004",
    "uniqueType": "lakes"
  },
  {
    "latitude": 46.7958928,
    "longitude": -87.661656,
    "name": "Lake Independence",
    "natural": "water",
    "water": "lake",
    "wikipedia": "en:Lake Independence (Michigan)",
    "uniqueType": "lakes"
  },
  {
    "latitude": 46.2499485,
    "longitude": -89.5841383,
    "name": "Snowshoe Lake",
    "natural": "water",
    "water": "lake",
    "NHD_date": "Thu Jul 29 00:00:00 CDT 2004",
    "uniqueType": "lakes"
  },
  {
    "latitude": 46.2557908,
    "longitude": -89.6251526,
    "name": "Summit Lake",
    "natural": "water",
    "water": "lake",
    "NHD_date": "Thu Jul 29 00:00:00 CDT 2004",
    "uniqueType": "lakes"
  },
  {
    "latitude": 46.0322623,
    "longitude": -88.4096221,
    "name": "Buck Lake",
    "natural": "water",
    "water": "lake",
    "uniqueType": "lakes"
  },
  {
    "latitude": 46.051613,
    "longitude": -88.7104617,
    "name": "Stanley Lake",
    "natural": "water",
    "water": "lake",
    "NHD_date": "Wed Nov 19 00:00:00 CST 2003",
    "uniqueType": "lakes"
  },
  {
    "latitude": 46.3370615,
    "longitude": -88.9382822,
    "name": "Lake Mitigwaki",
    "natural": "water",
    "water": "lake",
    "uniqueType": "lakes"
  },
  {
    "latitude": 46.2578912,
    "longitude": -89.090142,
    "name": "Marion Lake",
    "natural": "water",
    "water": "lake",
    "NHD_date": "Fri Aug 13 00:00:00 CDT 2004",
    "uniqueType": "lakes"
  },
  {
    "latitude": 46.3744692,
    "longitude": -88.6612629,
    "name": "Perch Lake",
    "natural": "water",
    "water": "lake",
    "NHD_date": "Mon Jan 12 00:00:00 CST 2004",
    "uniqueType": "lakes"
  },
  {
    "latitude": 47.4499402,
    "longitude": -87.9825792,
    "name": "Lake Medora",
    "natural": "water",
    "water": "lake",
    "wikipedia": "en:Lake Medora (Michigan)",
    "uniqueType": "lakes"
  },
  {
    "latitude": 46.2754572,
    "longitude": -89.6876655,
    "name": "Gaylord Lake",
    "natural": "water",
    "water": "lake",
    "NHD_date": "Thu Jul 29 00:00:00 CDT 2004",
    "uniqueType": "lakes"
  },
  {
    "latitude": 46.2233827,
    "longitude": -89.1765146,
    "name": "Allen Lake",
    "natural": "water",
    "water": "lake",
    "NHD_date": "Fri Aug 13 00:00:00 CDT 2004",
    "uniqueType": "lakes"
  },
  {
    "latitude": 46.4064628,
    "longitude": -88.3663409,
    "name": "Shank Lake",
    "natural": "water",
    "water": "lake",
    "NHD_date": "Wed Nov 19 00:00:00 CST 2003",
    "uniqueType": "lakes"
  },
  {
    "latitude": 47.4570634,
    "longitude": -88.1135719,
    "name": "Lake Bailey",
    "natural": "water",
    "water": "lake",
    "uniqueType": "lakes"
  },
  {
    "latitude": 47.1965794,
    "longitude": -88.4042909,
    "name": "Torch Lake",
    "natural": "water",
    "water": "lake",
    "NHD_date": "Fri Jan 09 00:00:00 CST 2004",
    "wikipedia": "en:Torch Lake (Houghton County, Michigan)",
    "uniqueType": "lakes"
  },
  {
    "latitude": 46.3023909,
    "longitude": -89.2429673,
    "name": "Sucker Lake",
    "natural": "water",
    "water": "lake",
    "NHD_date": "Fri Aug 13 00:00:00 CDT 2004",
    "uniqueType": "lakes"
  },
  {
    "latitude": 46.2501871,
    "longitude": -89.2862841,
    "name": "Crooked Lake",
    "natural": "water",
    "water": "lake",
    "NHD_date": "Fri Aug 13 00:00:00 CDT 2004",
    "uniqueType": "lakes"
  },
  {
    "latitude": 47.1685126,
    "longitude": -88.5298854,
    "name": "Boston Lake",
    "natural": "water",
    "water": "lake",
    "NHD_date": "Fri Jan 09 00:00:00 CST 2004",
    "uniqueType": "lakes"
  },
  {
    "latitude": 46.252598,
    "longitude": -89.3920552,
    "name": "Record Lake",
    "natural": "water",
    "water": "lake",
    "NHD_date": "Fri Aug 13 00:00:00 CDT 2004",
    "uniqueType": "lakes"
  },
  {
    "latitude": 46.3653186,
    "longitude": -88.8046122,
    "name": "Chamberlain Lake",
    "natural": "water",
    "water": "lake",
    "NHD_date": "Wed Nov 19 00:00:00 CST 2003",
    "uniqueType": "lakes"
  },
  {
    "latitude": 46.2719163,
    "longitude": -89.6484273,
    "name": "Ormes Lake",
    "natural": "water",
    "water": "lake",
    "uniqueType": "lakes"
  },
  {
    "latitude": 46.2093963,
    "longitude": -89.4689128,
    "name": "Crampton Lake",
    "natural": "water",
    "water": "lake",
    "NHD_date": "Fri Aug 13 00:00:00 CDT 2004",
    "uniqueType": "lakes"
  },
  {
    "latitude": 46.645598,
    "longitude": -88.256377,
    "name": "Clear Lake",
    "natural": "water",
    "water": "lake",
    "NHD_date": "Tue Sep 23 00:00:00 CDT 2003",
    "uniqueType": "lakes"
  },
  {
    "latitude": 46.2161802,
    "longitude": -89.3180313,
    "name": "Clark Lake",
    "natural": "water",
    "water": "lake",
    "wikipedia": "en:Clark Lake (Gogebic County, Michigan)",
    "uniqueType": "lakes"
  },
  {
    "latitude": 46.6394581,
    "longitude": -88.2417779,
    "name": "Wagner Lake",
    "natural": "water",
    "water": "lake",
    "NHD_date": "Tue Sep 23 00:00:00 CDT 2003",
    "uniqueType": "lakes"
  },
  {
    "latitude": 46.3749468,
    "longitude": -88.9299989,
    "name": "Bela Lake",
    "natural": "water",
    "water": "lake",
    "NHD_date": "Fri Aug 13 00:00:00 CDT 2004",
    "uniqueType": "lakes"
  },
  {
    "latitude": 46.2565494,
    "longitude": -89.4175049,
    "name": "Clearwater Lake",
    "natural": "water",
    "water": "lake",
    "NHD_date": "Fri Aug 13 00:00:00 CDT 2004",
    "uniqueType": "lakes"
  },
  {
    "latitude": 46.8918393,
    "longitude": -88.846351,
    "name": "Lake Roland",
    "natural": "water",
    "water": "lake",
    "uniqueType": "lakes"
  },
  {
    "latitude": 46.2319143,
    "longitude": -89.2562806,
    "name": "Mountain Lake",
    "natural": "water",
    "water": "lake",
    "NHD_date": "Fri Aug 13 00:00:00 CDT 2004",
    "uniqueType": "lakes"
  },
  {
    "latitude": 46.216911,
    "longitude": -89.0707172,
    "name": "Imp Lake",
    "natural": "water",
    "water": "lake",
    "NHD_date": "Fri Aug 13 00:00:00 CDT 2004",
    "uniqueType": "lakes"
  },
  {
    "latitude": 47.374352,
    "longitude": -87.9696485,
    "name": "Lac La Belle",
    "natural": "water",
    "water": "lake",
    "uniqueType": "lakes"
  },
  {
    "latitude": 46.8298759,
    "longitude": -88.8452913,
    "name": "Pike Lake",
    "natural": "water",
    "water": "lake",
    "NHD_date": "Mon Jan 12 00:00:00 CST 2004",
    "uniqueType": "lakes"
  },
  {
    "latitude": 46.2438778,
    "longitude": -89.2607178,
    "name": "West Bear Lake",
    "natural": "water",
    "water": "lake",
    "NHD_date": "Fri Aug 13 00:00:00 CDT 2004",
    "uniqueType": "lakes"
  },
  {
    "latitude": 46.2380858,
    "longitude": -89.3122428,
    "name": "Katherine Lake",
    "natural": "water",
    "water": "lake",
    "NHD_date": "Fri Aug 13 00:00:00 CDT 2004",
    "uniqueType": "lakes"
  },
  {
    "latitude": 46.522195,
    "longitude": -88.402195,
    "name": "King Lake",
    "natural": "water",
    "water": "lake",
    "NHD_date": "Mon Jan 12 00:00:00 CST 2004",
    "uniqueType": "lakes"
  },
  {
    "latitude": 46.2409378,
    "longitude": -89.2775635,
    "name": "High Lake",
    "natural": "water",
    "water": "lake",
    "NHD_date": "Fri Aug 13 00:00:00 CDT 2004",
    "uniqueType": "lakes"
  },
  {
    "latitude": 46.3558828,
    "longitude": -88.9194597,
    "name": "Robinson Lake",
    "natural": "water",
    "water": "lake",
    "NHD_date": "Wed Nov 19 00:00:00 CST 2003",
    "uniqueType": "lakes"
  },
  {
    "latitude": 46.0694382,
    "longitude": -88.7794555,
    "name": "Hagerman Lake",
    "natural": "water",
    "water": "lake",
    "uniqueType": "lakes"
  },
  {
    "latitude": 46.3108453,
    "longitude": -89.7860644,
    "name": "Mink Lake",
    "natural": "water",
    "water": "lake",
    "NHD_date": "Thu Jul 29 00:00:00 CDT 2004",
    "uniqueType": "lakes"
  },
  {
    "latitude": 46.6082713,
    "longitude": -88.5745531,
    "name": "Big Lake",
    "natural": "water",
    "water": "lake",
    "NHD_date": "Mon Jan 12 00:00:00 CST 2004",
    "uniqueType": "lakes"
  },
  {
    "latitude": 46.2374215,
    "longitude": -89.4855774,
    "name": "Emeline Lake",
    "natural": "water",
    "water": "lake",
    "NHD_date": "Fri Aug 13 00:00:00 CDT 2004",
    "uniqueType": "lakes"
  },
  {
    "latitude": 46.7149031,
    "longitude": -88.0442056,
    "name": "Summit Lake",
    "natural": "water",
    "water": "lake",
    "NHD_date": "Tue Sep 23 00:00:00 CDT 2003",
    "uniqueType": "lakes"
  },
  {
    "latitude": 47.434071,
    "longitude": -87.7485162,
    "name": "Schlatter Lake",
    "natural": "water",
    "water": "lake",
    "NHD_date": "Fri Jan 09 00:00:00 CST 2004",
    "uniqueType": "lakes"
  },
  {
    "latitude": 46.2658681,
    "longitude": -89.3737625,
    "name": "Damon Lake",
    "natural": "water",
    "water": "lake",
    "uniqueType": "lakes"
  },
  {
    "latitude": 46.378467,
    "longitude": -88.8159288,
    "name": "Papoose Lake",
    "natural": "water",
    "water": "lake",
    "NHD_date": "Fri Aug 13 00:00:00 CDT 2004",
    "uniqueType": "lakes"
  },
  {
    "latitude": 46.3435505,
    "longitude": -88.88308,
    "name": "Paint Lake",
    "natural": "water",
    "water": "lake",
    "NHD_date": "Wed Nov 19 00:00:00 CST 2003",
    "uniqueType": "lakes"
  },
  {
    "latitude": 46.446554,
    "longitude": -89.5513942,
    "name": "Lake Gogebic",
    "natural": "water",
    "water": "lake",
    "wikipedia": "en:Lake Gogebic",
    "elevation": "395",
    "uniqueType": "lakes"
  },
  {
    "latitude": 46.4331644,
    "longitude": -89.0633311,
    "name": "Mattie Lake",
    "natural": "water",
    "water": "lake",
    "NHD_date": "Fri Aug 13 00:00:00 CDT 2004",
    "uniqueType": "lakes"
  },
  {
    "latitude": 46.2258918,
    "longitude": -89.2131062,
    "name": "Duck Lake",
    "natural": "water",
    "water": "lake",
    "NHD_date": "Fri Aug 13 00:00:00 CDT 2004",
    "uniqueType": "lakes"
  },
  {
    "latitude": 46.2421686,
    "longitude": -89.341576,
    "name": "Helen Lake",
    "natural": "water",
    "water": "lake",
    "NHD_date": "Fri Aug 13 00:00:00 CDT 2004",
    "uniqueType": "lakes"
  },
  {
    "latitude": 46.3384887,
    "longitude": -88.7570236,
    "name": "Winslow Lake",
    "natural": "water",
    "water": "lake",
    "NHD_date": "Wed Nov 19 00:00:00 CST 2003",
    "uniqueType": "lakes"
  },
  {
    "latitude": 46.2238522,
    "longitude": -89.533983,
    "name": "Tenderfoot Lake",
    "natural": "water",
    "water": "lake",
    "NHD_date": "Fri Aug 13 00:00:00 CDT 2004",
    "uniqueType": "lakes"
  },
  {
    "latitude": 46.162134,
    "longitude": -88.398845,
    "name": "Swan Lake",
    "natural": "water",
    "water": "lake",
    "uniqueType": "lakes"
  },
  {
    "latitude": 46.0657059,
    "longitude": -88.3335347,
    "name": "Railroad Lake",
    "natural": "water",
    "water": "lake",
    "uniqueType": "lakes"
  },
  {
    "latitude": 46.2378125,
    "longitude": -89.4639904,
    "name": "Guides Lake",
    "natural": "water",
    "water": "lake",
    "NHD_date": "Fri Aug 13 00:00:00 CDT 2004",
    "uniqueType": "lakes"
  },
  {
    "latitude": 46.6838593,
    "longitude": -87.9623507,
    "name": "Lake Margaret",
    "natural": "water",
    "water": "lake",
    "uniqueType": "lakes"
  },
  {
    "latitude": 46.2062,
    "longitude": -89.4224875,
    "name": "West Bay Lake",
    "natural": "water",
    "water": "lake",
    "NHD_date": "Fri Aug 13 00:00:00 CDT 2004",
    "uniqueType": "lakes"
  },
  {
    "latitude": 46.2542369,
    "longitude": -89.6151027,
    "name": "Range Lake",
    "natural": "water",
    "water": "lake",
    "NHD_date": "Thu Jul 29 00:00:00 CDT 2004",
    "uniqueType": "lakes"
  },
  {
    "latitude": 46.2077639,
    "longitude": -89.3401988,
    "name": "Whitefish Lake",
    "natural": "water",
    "water": "lake",
    "NHD_date": "Fri Aug 13 00:00:00 CDT 2004",
    "uniqueType": "lakes"
  },
  {
    "latitude": 46.2088803,
    "longitude": -89.4560862,
    "name": "Big Lake",
    "natural": "water",
    "water": "lake",
    "NHD_date": "Fri Aug 13 00:00:00 CDT 2004",
    "uniqueType": "lakes"
  },
  {
    "latitude": 46.1996549,
    "longitude": -88.4387269,
    "name": "Gibson Lake",
    "natural": "water",
    "water": "lake",
    "NHD_date": "Wed Nov 19 00:00:00 CST 2003",
    "uniqueType": "lakes"
  },
  {
    "latitude": 46.3072516,
    "longitude": -89.182041,
    "name": "Bass Lake",
    "natural": "water",
    "water": "lake",
    "NHD_date": "Fri Aug 13 00:00:00 CDT 2004",
    "uniqueType": "lakes"
  },
  {
    "latitude": 46.6859558,
    "longitude": -87.6463826,
    "name": "Third Bass Lake",
    "natural": "water",
    "water": "lake",
    "NHD_date": "Tue Sep 23 00:00:00 CDT 2003",
    "uniqueType": "lakes"
  },
  {
    "latitude": 46.2518286,
    "longitude": -89.7241799,
    "name": "Stateline Lake",
    "natural": "water",
    "water": "lake",
    "NHD_date": "Thu Jul 29 00:00:00 CDT 2004",
    "uniqueType": "lakes"
  },
  {
    "latitude": 46.2176909,
    "longitude": -89.5027263,
    "name": "Plum Lake",
    "natural": "water",
    "water": "lake",
    "NHD_date": "Fri Aug 13 00:00:00 CDT 2004",
    "uniqueType": "lakes"
  },
  {
    "latitude": 42.296741,
    "longitude": -85.202037,
    "name": "Goguac Lake",
    "natural": "water",
    "water": "lake",
    "wikipedia": "en:Goguac Lake",
    "uniqueType": "lakes"
  },
  {
    "latitude": 42.3212038,
    "longitude": -85.3280557,
    "name": "Eagle Lake",
    "natural": "water",
    "water": "lake",
    "uniqueType": "lakes"
  },
  {
    "latitude": 43.2657571,
    "longitude": -84.9412939,
    "name": "Crystal Lake",
    "natural": "water",
    "water": "lake",
    "uniqueType": "lakes"
  },
  {
    "latitude": 44.4266558,
    "longitude": -84.6809307,
    "name": "Higgins Lake",
    "natural": "water",
    "water": "lake",
    "wikipedia": "en:Higgins Lake",
    "elevation": "352",
    "uniqueType": "lakes"
  },
  {
    "latitude": 42.6806633,
    "longitude": -83.3720134,
    "name": "Loon Lake",
    "natural": "water",
    "water": "lake",
    "wikipedia": "en:Loon Lake (Waterford Township, Michigan)",
    "uniqueType": "lakes"
  },
  {
    "latitude": 42.6891068,
    "longitude": -83.3366719,
    "name": "Lake Angelus",
    "type": "LakePond",
    "natural": "water",
    "water": "lake",
    "elevation": "289",
    "uniqueType": "lakes"
  },
  {
    "latitude": 42.7647155,
    "longitude": -83.4828365,
    "name": "Susin Lake",
    "type": "Lake",
    "natural": "water",
    "water": "lake",
    "uniqueType": "lakes"
  },
  {
    "latitude": 42.7828034,
    "longitude": -83.3756871,
    "name": "Whipple Lake",
    "type": "LakePond",
    "natural": "water",
    "water": "lake",
    "wikipedia": "en:Whipple Lake (Independence Township, Michigan)",
    "uniqueType": "lakes"
  },
  {
    "latitude": 42.7377844,
    "longitude": -83.4381333,
    "name": "Deer Lake",
    "natural": "water",
    "water": "lake",
    "wikipedia": "en:Deer Lake (Independence Township, Michigan)",
    "uniqueType": "lakes"
  },
  {
    "latitude": 42.8364626,
    "longitude": -83.2877204,
    "name": "Waterstone Lake",
    "type": "LakePond",
    "natural": "water",
    "water": "lake",
    "uniqueType": "lakes"
  },
  {
    "latitude": 42.7044632,
    "longitude": -83.4006927,
    "name": "Woodhull Lake",
    "natural": "water",
    "water": "lake",
    "wikipedia": "en:Woodhull Lake",
    "uniqueType": "lakes"
  },
  {
    "latitude": 42.8302319,
    "longitude": -83.3126312,
    "name": "Whisper Lake",
    "natural": "water",
    "water": "lake",
    "uniqueType": "lakes"
  },
  {
    "latitude": 42.6900254,
    "longitude": -83.3421869,
    "name": "Mohawk Lake",
    "natural": "water",
    "water": "lake",
    "elevation": "289",
    "uniqueType": "lakes"
  },
  {
    "latitude": 42.7062129,
    "longitude": -83.4140205,
    "name": "Van Norman Lake",
    "natural": "water",
    "water": "lake",
    "wikipedia": "en:Van Norman Lake (Michigan)",
    "uniqueType": "lakes"
  },
  {
    "latitude": 42.6621315,
    "longitude": -83.3677254,
    "name": "Watkins Lake",
    "type": "LakePond",
    "natural": "water",
    "water": "lake",
    "uniqueType": "lakes"
  },
  {
    "latitude": 42.80172,
    "longitude": -83.198808,
    "name": "Indian Lake",
    "natural": "water",
    "water": "lake",
    "uniqueType": "lakes"
  },
  {
    "latitude": 42.8138729,
    "longitude": -83.2423928,
    "name": "Lake Erin",
    "type": "LakePond",
    "natural": "water",
    "water": "lake",
    "uniqueType": "lakes"
  },
  {
    "latitude": 42.8431452,
    "longitude": -83.1547528,
    "name": "Shadow Lake",
    "natural": "water",
    "water": "lake",
    "uniqueType": "lakes"
  },
  {
    "latitude": 42.6382818,
    "longitude": -83.3869003,
    "name": "Elizabeth Lake",
    "type": "LakePond",
    "natural": "water",
    "water": "lake",
    "elevation": "283",
    "uniqueType": "lakes"
  },
  {
    "latitude": 42.7654664,
    "longitude": -83.2704426,
    "name": "Elkhorn Lake",
    "type": "LakePond",
    "natural": "water",
    "water": "lake",
    "uniqueType": "lakes"
  },
  {
    "latitude": 42.7417899,
    "longitude": -83.3058491,
    "name": "Voorheis Lake",
    "natural": "water",
    "water": "lake",
    "uniqueType": "lakes"
  },
  {
    "latitude": 42.8430433,
    "longitude": -83.150514,
    "name": "Upper Lakeville Lake",
    "natural": "water",
    "water": "lake",
    "uniqueType": "lakes"
  },
  {
    "latitude": 42.6424471,
    "longitude": -83.4412344,
    "name": "Pleasant Lake",
    "type": "LakePond",
    "natural": "water",
    "water": "lake",
    "wikipedia": "en:Pleasant Lake (Waterford Township, Michigan)",
    "uniqueType": "lakes"
  },
  {
    "latitude": 42.6749926,
    "longitude": -83.4177549,
    "name": "Williams Lake",
    "natural": "water",
    "water": "lake",
    "uniqueType": "lakes"
  },
  {
    "latitude": 42.7696512,
    "longitude": -83.3361424,
    "name": "Heather Lake",
    "type": "LakePond",
    "natural": "water",
    "water": "lake",
    "uniqueType": "lakes"
  },
  {
    "latitude": 42.6935732,
    "longitude": -83.4315909,
    "type": "LakePond",
    "natural": "water",
    "water": "lake",
    "uniqueType": "lakes"
  },
  {
    "latitude": 42.6201439,
    "longitude": -83.3732271,
    "name": "Cass Lake",
    "type": "LakePond",
    "natural": "water",
    "water": "lake",
    "wikipedia": "en:Cass Lake (Michigan)",
    "uniqueType": "lakes"
  },
  {
    "latitude": 42.7065365,
    "longitude": -83.4278161,
    "name": "Greens Lake",
    "type": "LakePond",
    "natural": "water",
    "water": "lake",
    "wikipedia": "en:Greens Lake (Michigan)",
    "uniqueType": "lakes"
  },
  {
    "latitude": 42.797833,
    "longitude": -83.253291,
    "name": "Manito Lake",
    "natural": "water",
    "water": "lake",
    "uniqueType": "lakes"
  },
  {
    "latitude": 42.5945433,
    "longitude": -83.3325272,
    "name": "Pine Lake",
    "natural": "water",
    "water": "lake",
    "wikipedia": "en:Pine Lake (West Bloomfield Township, Michigan)",
    "uniqueType": "lakes"
  },
  {
    "latitude": 42.6382818,
    "longitude": -83.3869003,
    "name": "Crescent Lake",
    "type": "LakePond",
    "natural": "water",
    "water": "lake",
    "uniqueType": "lakes"
  },
  {
    "latitude": 42.7816531,
    "longitude": -83.3911364,
    "name": "Crooked Lake",
    "type": "LakePond",
    "natural": "water",
    "water": "lake",
    "uniqueType": "lakes"
  },
  {
    "latitude": 42.7795425,
    "longitude": -83.1702579,
    "name": "Clam Lake",
    "type": "LakePond",
    "natural": "water",
    "water": "lake",
    "elevation": "285",
    "uniqueType": "lakes"
  },
  {
    "latitude": 42.7788228,
    "longitude": -83.2641334,
    "name": "Lake Orion",
    "natural": "water",
    "water": "lake",
    "elevation": "299",
    "uniqueType": "lakes"
  },
  {
    "latitude": 42.8419873,
    "longitude": -83.1544855,
    "name": "Lakeville Lake",
    "natural": "water",
    "water": "lake",
    "elevation": "290",
    "uniqueType": "lakes"
  },
  {
    "latitude": 42.6191487,
    "longitude": -83.3086244,
    "name": "Crystal Lake",
    "type": "LakePond",
    "natural": "water",
    "water": "lake",
    "elevation": "279",
    "uniqueType": "lakes"
  },
  {
    "latitude": 42.7671243,
    "longitude": -83.4975418,
    "name": "Dixie Lake",
    "natural": "water",
    "water": "lake",
    "uniqueType": "lakes"
  },
  {
    "latitude": 42.793185,
    "longitude": -83.2620381,
    "name": "Indianwood Lake",
    "natural": "water",
    "water": "lake",
    "uniqueType": "lakes"
  },
  {
    "latitude": 42.5970046,
    "longitude": -83.2985382,
    "name": "Forest Lake",
    "natural": "water",
    "water": "lake",
    "uniqueType": "lakes"
  },
  {
    "latitude": 42.5088305,
    "longitude": -83.4783666,
    "name": "Mud Pond",
    "alt_name": "Sharwood Lake",
    "natural": "water",
    "water": "lake",
    "uniqueType": "lakes"
  },
  {
    "latitude": 42.602919,
    "longitude": -83.309403,
    "name": "Turtle Lake",
    "type": "LakePond",
    "natural": "water",
    "water": "lake",
    "uniqueType": "lakes"
  },
  {
    "latitude": 42.555757,
    "longitude": -83.2770938,
    "name": "Gilbert Lake",
    "type": "LakePond",
    "natural": "water",
    "water": "lake",
    "uniqueType": "lakes"
  },
  {
    "latitude": 42.585956,
    "longitude": -83.3000846,
    "name": "Island Lake",
    "natural": "water",
    "water": "lake",
    "uniqueType": "lakes"
  },
  {
    "latitude": 42.3340595,
    "longitude": -82.9949406,
    "name": "Lake Tacoma",
    "natural": "water",
    "water": "lake",
    "uniqueType": "lakes"
  },
  {
    "latitude": 42.5553922,
    "longitude": -83.2989585,
    "name": "Wing Lake",
    "natural": "water",
    "water": "lake",
    "uniqueType": "lakes"
  },
  {
    "latitude": 42.3398893,
    "longitude": -82.96867,
    "name": "Lake Okonoka",
    "natural": "water",
    "water": "lake",
    "uniqueType": "lakes"
  },
  {
    "latitude": 42.5706429,
    "longitude": -83.2559043,
    "natural": "water",
    "water": "lake",
    "uniqueType": "lakes"
  },
  {
    "latitude": 42.625939,
    "longitude": -83.733094,
    "name": "Long Lake",
    "type": "LakePond",
    "natural": "water",
    "water": "lake",
    "uniqueType": "lakes"
  },
  {
    "latitude": 42.596615,
    "longitude": -83.4193154,
    "name": "Green Lake",
    "type": "LakePond",
    "natural": "water",
    "water": "lake",
    "uniqueType": "lakes"
  },
  {
    "latitude": 42.6560148,
    "longitude": -83.610314,
    "name": "Harvey Lake",
    "type": "LakePond",
    "natural": "water",
    "water": "lake",
    "elevation": "303",
    "uniqueType": "lakes"
  },
  {
    "latitude": 42.6477127,
    "longitude": -83.4468811,
    "name": "Foxdale Lake",
    "type": "LakePond",
    "natural": "water",
    "water": "lake",
    "uniqueType": "lakes"
  },
  {
    "latitude": 42.4116272,
    "longitude": -83.9306169,
    "name": "Little Portage Lake",
    "type": "LakePond",
    "natural": "water",
    "water": "lake",
    "uniqueType": "lakes"
  },
  {
    "latitude": 42.452185,
    "longitude": -83.7192,
    "name": "Sandy Bottom Lake",
    "type": "LakePond",
    "natural": "water",
    "water": "lake",
    "uniqueType": "lakes"
  },
  {
    "latitude": 42.6340237,
    "longitude": -83.4777948,
    "name": "Cedar Island Lake",
    "type": "LakePond",
    "natural": "water",
    "water": "lake",
    "uniqueType": "lakes"
  },
  {
    "latitude": 42.522594,
    "longitude": -83.6796512,
    "name": "Wildwing Lake",
    "type": "LakePond",
    "natural": "water",
    "water": "lake",
    "uniqueType": "lakes"
  },
  {
    "latitude": 42.6165944,
    "longitude": -83.4592999,
    "name": "Cooley Lake",
    "type": "LakePond",
    "natural": "water",
    "water": "lake",
    "wikipedia": "en:Cooley Lake (White Lake Township, Michigan)",
    "uniqueType": "lakes"
  },
  {
    "latitude": 42.5096362,
    "longitude": -83.7363963,
    "name": "Island Lake",
    "type": "LakePond",
    "natural": "water",
    "water": "lake",
    "uniqueType": "lakes"
  },
  {
    "latitude": 42.5892239,
    "longitude": -83.6502006,
    "name": "Sears Lake",
    "type": "LakePond",
    "natural": "water",
    "water": "lake",
    "uniqueType": "lakes"
  },
  {
    "latitude": 42.4855887,
    "longitude": -83.7137446,
    "name": "Mallard Lake",
    "type": "LakePond",
    "natural": "water",
    "water": "lake",
    "uniqueType": "lakes"
  },
  {
    "latitude": 42.6105217,
    "longitude": -83.490707,
    "name": "Fox Lake",
    "type": "LakePond",
    "natural": "water",
    "water": "lake",
    "uniqueType": "lakes"
  },
  {
    "latitude": 42.4251301,
    "longitude": -84.0013125,
    "name": "Hi-Land Lake",
    "alt_name": "Hiland Lake",
    "type": "LakePond",
    "natural": "water",
    "water": "lake",
    "uniqueType": "lakes"
  },
  {
    "latitude": 42.5773501,
    "longitude": -83.3947016,
    "name": "Upper Straits Lake",
    "type": "LakePond",
    "natural": "water",
    "water": "lake",
    "uniqueType": "lakes"
  },
  {
    "latitude": 42.3701017,
    "longitude": -84.0450375,
    "name": "Island Lake",
    "type": "LakePond",
    "natural": "water",
    "water": "lake",
    "uniqueType": "lakes"
  },
  {
    "latitude": 42.6770052,
    "longitude": -83.5988316,
    "name": "Duck Lake",
    "type": "LakePond",
    "natural": "water",
    "water": "lake",
    "uniqueType": "lakes"
  },
  {
    "latitude": 42.6685528,
    "longitude": -83.5742334,
    "name": "White Lake",
    "natural": "water",
    "water": "lake",
    "elevation": "310",
    "uniqueType": "lakes"
  },
  {
    "latitude": 42.6451686,
    "longitude": -83.5588929,
    "name": "Haven Hill Lake",
    "type": "LakePond",
    "natural": "water",
    "water": "lake",
    "uniqueType": "lakes"
  },
  {
    "latitude": 42.6703466,
    "longitude": -83.5397819,
    "name": "Grass Lake",
    "type": "LakePond",
    "natural": "water",
    "water": "lake",
    "uniqueType": "lakes"
  },
  {
    "latitude": 42.470582,
    "longitude": -83.89269,
    "name": "Rush Lake",
    "natural": "water",
    "water": "lake",
    "uniqueType": "lakes"
  },
  {
    "latitude": 42.6117528,
    "longitude": -83.4764235,
    "name": "Clark Lake",
    "type": "LakePond",
    "natural": "water",
    "water": "lake",
    "uniqueType": "lakes"
  },
  {
    "latitude": 42.4174338,
    "longitude": -83.9260975,
    "name": "Portage Lake",
    "type": "LakePond",
    "natural": "water",
    "water": "lake",
    "uniqueType": "lakes"
  },
  {
    "latitude": 42.4541125,
    "longitude": -83.8678356,
    "name": "Bass Lake",
    "natural": "water",
    "water": "lake",
    "uniqueType": "lakes"
  },
  {
    "latitude": 42.6132843,
    "longitude": -83.4640323,
    "name": "Long Lake",
    "type": "LakePond",
    "natural": "water",
    "water": "lake",
    "uniqueType": "lakes"
  },
  {
    "latitude": 42.6707795,
    "longitude": -83.4580437,
    "name": "Pontiac Lake",
    "type": "LakePond",
    "natural": "water",
    "water": "lake",
    "uniqueType": "lakes"
  },
  {
    "latitude": 42.204154,
    "longitude": -83.5646215,
    "name": "Ford Lake",
    "natural": "water",
    "water": "lake",
    "wikipedia": "en:Ford Lake (Michigan)",
    "uniqueType": "lakes"
  },
  {
    "latitude": 42.599498,
    "longitude": -83.5498836,
    "name": "Lake Sherwood",
    "type": "LakePond",
    "natural": "water",
    "water": "lake",
    "elevation": "210",
    "uniqueType": "lakes"
  },
  {
    "latitude": 42.5689348,
    "longitude": -83.5238907,
    "name": "Proud Lake",
    "type": "LakePond",
    "natural": "water",
    "water": "lake",
    "uniqueType": "lakes"
  },
  {
    "latitude": 42.7008299,
    "longitude": -83.4642814,
    "name": "Foley Lake",
    "natural": "water",
    "water": "lake",
    "uniqueType": "lakes"
  },
  {
    "latitude": 42.6451113,
    "longitude": -83.470707,
    "name": "Oxbow Lake",
    "type": "LakePond",
    "natural": "water",
    "water": "lake",
    "uniqueType": "lakes"
  },
  {
    "latitude": 42.5900168,
    "longitude": -83.4615359,
    "name": "Lower Straits Lake",
    "type": "LakePond",
    "natural": "water",
    "water": "lake",
    "uniqueType": "lakes"
  },
  {
    "latitude": 42.943208,
    "longitude": -84.4198477,
    "name": "Lake Ovid",
    "natural": "water",
    "water": "lake",
    "wikipedia": "en:Lake Ovid",
    "uniqueType": "lakes"
  },
  {
    "latitude": 42.2407437,
    "longitude": -83.4362628,
    "name": "Grace Lake",
    "type": "LakePond",
    "natural": "water",
    "water": "lake",
    "uniqueType": "lakes"
  },
  {
    "latitude": 45.3155503,
    "longitude": -85.2471601,
    "name": "Round Lake",
    "natural": "water",
    "water": "lake",
    "elevation": "177",
    "uniqueType": "lakes"
  },
  {
    "latitude": 41.9112802,
    "longitude": -87.6246724,
    "name": "Lake Michigan",
    "natural": "water",
    "water": "lake",
    "wikipedia": "en:Lake Michigan",
    "elevation": "176",
    "uniqueType": "lakes"
  },
  {
    "latitude": 44.5373833,
    "longitude": -80.3892364,
    "name": "Lake Huron",
    "natural": "water",
    "water": "lake",
    "wikipedia": "en:Lake Huron",
    "elevation": "176",
    "uniqueType": "lakes"
  },
  {
    "latitude": 44.8138434,
    "longitude": -85.3129593,
    "name": "Lake Skegemog",
    "natural": "water",
    "water": "lake",
    "wikipedia": "en:Lake Skegemog",
    "uniqueType": "lakes"
  },
  {
    "latitude": 42.6178067,
    "longitude": -85.5247728,
    "name": "Gun Lake",
    "natural": "water",
    "water": "lake",
    "wikipedia": "en:Gun Lake (Michigan)",
    "uniqueType": "lakes"
  },
  {
    "latitude": 42.4072926,
    "longitude": -85.4050627,
    "name": "Gull Lake",
    "natural": "water",
    "water": "lake",
    "wikipedia": "en:Gull Lake (Michigan)",
    "uniqueType": "lakes"
  },
  {
    "latitude": 42.8980224,
    "longitude": -85.78581,
    "name": "Kenowa Lake",
    "natural": "water",
    "water": "lake",
    "uniqueType": "lakes"
  },
  {
    "latitude": 45.2644096,
    "longitude": -85.1785168,
    "name": "Lake Charlevoix",
    "natural": "water",
    "water": "lake",
    "wikipedia": "en:Lake Charlevoix",
    "elevation": "177",
    "uniqueType": "lakes"
  },
  {
    "latitude": 44.6859057,
    "longitude": -85.7071325,
    "name": "Bass Lake",
    "natural": "water",
    "water": "lake",
    "wikipedia": "en:Bass Lake (Long Lake Township, Michigan)",
    "uniqueType": "lakes"
  },
  {
    "latitude": 44.71062,
    "longitude": -85.6893703,
    "name": "Silver Lake",
    "natural": "water",
    "water": "lake",
    "wikipedia": "en:Silver Lake (Grand Traverse County, Michigan)",
    "uniqueType": "lakes"
  },
  {
    "latitude": 44.6632271,
    "longitude": -85.5134136,
    "name": "Arbutus Lake",
    "natural": "water",
    "water": "lake",
    "wikipedia": "en:Arbutus Lake (Michigan)",
    "uniqueType": "lakes"
  },
  {
    "latitude": 44.6892033,
    "longitude": -85.4922216,
    "name": "Spider Lake",
    "natural": "water",
    "water": "lake",
    "wikipedia": "en:Spider Lake (Grand Traverse County, Michigan)",
    "uniqueType": "lakes"
  },
  {
    "latitude": 44.6855158,
    "longitude": -85.4468929,
    "name": "Island Lake",
    "natural": "water",
    "water": "lake",
    "uniqueType": "lakes"
  },
  {
    "latitude": 44.6729954,
    "longitude": -85.4554607,
    "name": "Rennie Lake",
    "natural": "water",
    "water": "lake",
    "wikipedia": "en:Rennie Lake",
    "uniqueType": "lakes"
  },
  {
    "latitude": 44.6596171,
    "longitude": -85.5062599,
    "name": "Spring Lake",
    "natural": "water",
    "water": "lake",
    "uniqueType": "lakes"
  },
  {
    "latitude": 46.1139968,
    "longitude": -86.2777943,
    "name": "Island Lake",
    "natural": "water",
    "water": "lake",
    "uniqueType": "lakes"
  },
  {
    "latitude": 43.365192,
    "longitude": -86.1735823,
    "natural": "water",
    "water": "lake",
    "uniqueType": "lakes"
  },
  {
    "latitude": 44.5661237,
    "longitude": -85.3554457,
    "name": "Fife Lake",
    "natural": "water",
    "water": "lake",
    "uniqueType": "lakes"
  },
  {
    "latitude": 43.6004414,
    "longitude": -85.2788831,
    "name": "School Section Lake",
    "natural": "water",
    "water": "lake",
    "uniqueType": "lakes"
  },
  {
    "latitude": 44.7324389,
    "longitude": -85.7638041,
    "name": "Long Lake",
    "natural": "water",
    "water": "lake",
    "wikipedia": "en:Long Lake (Grand Traverse County, Michigan)",
    "uniqueType": "lakes"
  },
  {
    "latitude": 46.0423182,
    "longitude": -83.6076529,
    "name": "First Lake",
    "natural": "water",
    "water": "lake",
    "uniqueType": "lakes"
  },
  {
    "latitude": 45.9588953,
    "longitude": -83.5740707,
    "name": "Dickenson Lake",
    "natural": "water",
    "water": "lake",
    "uniqueType": "lakes"
  },
  {
    "latitude": 45.9328476,
    "longitude": -83.5782404,
    "name": "Jarvinen Marsh Lake",
    "natural": "water",
    "water": "lake",
    "uniqueType": "lakes"
  },
  {
    "latitude": 45.9345894,
    "longitude": -83.5537008,
    "name": "Bass Lake",
    "natural": "water",
    "water": "lake",
    "uniqueType": "lakes"
  },
  {
    "latitude": 45.9659246,
    "longitude": -83.5403258,
    "name": "Clear Lake",
    "natural": "water",
    "water": "lake",
    "uniqueType": "lakes"
  },
  {
    "latitude": 46.0980446,
    "longitude": -83.6389177,
    "name": "Dawson Lake",
    "natural": "water",
    "water": "lake",
    "uniqueType": "lakes"
  },
  {
    "latitude": 46.0210233,
    "longitude": -83.5832299,
    "name": "Stevens Lake",
    "natural": "water",
    "water": "lake",
    "uniqueType": "lakes"
  },
  {
    "latitude": 46.0000004,
    "longitude": -83.6521198,
    "name": "Loyal Lake",
    "natural": "water",
    "water": "lake",
    "uniqueType": "lakes"
  },
  {
    "latitude": 46.0493347,
    "longitude": -83.5865981,
    "name": "Second Lake",
    "natural": "water",
    "water": "lake",
    "uniqueType": "lakes"
  },
  {
    "latitude": 46.0034718,
    "longitude": -83.56598,
    "name": "Fourth Lake",
    "natural": "water",
    "water": "lake",
    "uniqueType": "lakes"
  },
  {
    "latitude": 46.3128645,
    "longitude": -88.0785597,
    "name": "Chief Lake",
    "natural": "water",
    "water": "lake",
    "uniqueType": "lakes"
  },
  {
    "latitude": 46.6094121,
    "longitude": -88.1896088,
    "name": "Craig Lake",
    "type": "LakePond",
    "natural": "water",
    "water": "lake",
    "uniqueType": "lakes"
  },
  {
    "latitude": 46.5831711,
    "longitude": -88.2170557,
    "name": "Deer Lake",
    "natural": "water",
    "water": "lake",
    "uniqueType": "lakes"
  },
  {
    "latitude": 46.6573159,
    "longitude": -88.2407625,
    "name": "Fisher Lake",
    "natural": "water",
    "water": "lake",
    "uniqueType": "lakes"
  },
  {
    "latitude": 46.5996224,
    "longitude": -88.1249995,
    "name": "Lake Keewaydin",
    "natural": "water",
    "water": "lake",
    "uniqueType": "lakes"
  },
  {
    "latitude": 46.2730523,
    "longitude": -87.3693883,
    "name": "Mehl Lake",
    "type": "LakePond",
    "natural": "water",
    "water": "lake",
    "uniqueType": "lakes"
  },
  {
    "latitude": 46.4630611,
    "longitude": -88.3373379,
    "name": "Ned Lake",
    "natural": "water",
    "water": "lake",
    "uniqueType": "lakes"
  },
  {
    "latitude": 46.2683456,
    "longitude": -87.5761389,
    "name": "Pike Lake",
    "natural": "water",
    "water": "lake",
    "uniqueType": "lakes"
  },
  {
    "latitude": 46.4245249,
    "longitude": -88.1251073,
    "name": "Saint Johns Lake",
    "natural": "water",
    "water": "lake",
    "uniqueType": "lakes"
  },
  {
    "latitude": 46.2081266,
    "longitude": -88.0152309,
    "name": "Silver Lake",
    "natural": "water",
    "water": "lake",
    "uniqueType": "lakes"
  },
  {
    "latitude": 46.2763055,
    "longitude": -87.7436657,
    "name": "Hurt Lake",
    "natural": "water",
    "water": "lake",
    "uniqueType": "lakes"
  },
  {
    "latitude": 46.3074413,
    "longitude": -88.0758936,
    "name": "Ski-kwe zaag'igan",
    "natural": "water",
    "water": "lake",
    "description": "Renamed in 2022, \"In response to the Department of the Interior Secretarial Order 3404 this is the list of U.S. Board on Geographic Names approved official Sq_ replacement names.\"",
    "uniqueType": "lakes"
  },
  {
    "latitude": 46.3205742,
    "longitude": -87.7121251,
    "name": "Pilliot Lake",
    "natural": "water",
    "water": "lake",
    "uniqueType": "lakes"
  },
  {
    "latitude": 46.5677884,
    "longitude": -88.1166226,
    "name": "Thomas Lake",
    "natural": "water",
    "water": "lake",
    "uniqueType": "lakes"
  },
  {
    "latitude": 46.5327072,
    "longitude": -88.0605923,
    "name": "Lake Michigamme",
    "natural": "water",
    "water": "lake",
    "wikipedia": "en:Lake Michigamme",
    "uniqueType": "lakes"
  },
  {
    "latitude": 46.7078292,
    "longitude": -88.0839908,
    "name": "Charles Lake",
    "natural": "water",
    "water": "lake",
    "uniqueType": "lakes"
  },
  {
    "latitude": 46.3036194,
    "longitude": -87.6251441,
    "name": "Hay Lake",
    "natural": "water",
    "water": "lake",
    "uniqueType": "lakes"
  },
  {
    "latitude": 46.5979491,
    "longitude": -88.1456008,
    "name": "Crooked Lake",
    "natural": "water",
    "water": "lake",
    "uniqueType": "lakes"
  },
  {
    "latitude": 46.175429,
    "longitude": -89.2833,
    "name": "Big Bateau Lake",
    "natural": "water",
    "water": "lake",
    "uniqueType": "lakes"
  },
  {
    "latitude": 45.9182686,
    "longitude": -87.7896468,
    "name": "Brown Lake",
    "natural": "water",
    "water": "lake",
    "uniqueType": "lakes"
  },
  {
    "latitude": 45.306475,
    "longitude": -87.5583916,
    "name": "Hanson Lake",
    "natural": "water",
    "water": "lake",
    "uniqueType": "lakes"
  },
  {
    "latitude": 45.3572873,
    "longitude": -87.495194,
    "name": "Hayward Lake",
    "natural": "water",
    "water": "lake",
    "uniqueType": "lakes"
  },
  {
    "latitude": 46.2105794,
    "longitude": -89.2924919,
    "name": "Loon Lake",
    "natural": "water",
    "water": "lake",
    "wikipedia": "en:Loon Lake (Gogebic County, Michigan)",
    "uniqueType": "lakes"
  },
  {
    "latitude": 46.1734077,
    "longitude": -89.2104152,
    "name": "Moon Lake",
    "natural": "water",
    "water": "lake",
    "uniqueType": "lakes"
  },
  {
    "latitude": 45.384863,
    "longitude": -87.4869829,
    "name": "North Lake",
    "natural": "water",
    "water": "lake",
    "uniqueType": "lakes"
  },
  {
    "latitude": 45.4233024,
    "longitude": -87.8478757,
    "name": "Osborn Lake",
    "natural": "water",
    "water": "lake",
    "uniqueType": "lakes"
  },
  {
    "latitude": 45.9609056,
    "longitude": -87.9815687,
    "name": "South Pond",
    "natural": "water",
    "water": "lake",
    "uniqueType": "lakes"
  },
  {
    "latitude": 46.1587285,
    "longitude": -89.2579098,
    "name": "Landing Lake",
    "natural": "water",
    "water": "lake",
    "uniqueType": "lakes"
  },
  {
    "latitude": 45.4156261,
    "longitude": -87.8207862,
    "name": "Resort Lake",
    "natural": "water",
    "water": "lake",
    "uniqueType": "lakes"
  },
  {
    "latitude": 46.1149746,
    "longitude": -88.9314633,
    "name": "Smoky Lake",
    "natural": "water",
    "water": "lake",
    "uniqueType": "lakes"
  },
  {
    "latitude": 45.96991,
    "longitude": -88.0034694,
    "name": "East Pond",
    "natural": "water",
    "water": "lake",
    "uniqueType": "lakes"
  },
  {
    "latitude": 46.191579,
    "longitude": -89.2681166,
    "name": "Deer Island Lake",
    "natural": "water",
    "water": "lake",
    "wikipedia": "en:Deer Island Lake",
    "uniqueType": "lakes"
  },
  {
    "latitude": 45.9791601,
    "longitude": -88.0021681,
    "name": "Island Pond",
    "natural": "water",
    "water": "lake",
    "uniqueType": "lakes"
  },
  {
    "latitude": 45.9798121,
    "longitude": -86.1175891,
    "name": "Cookson Lake",
    "natural": "water",
    "water": "lake",
    "uniqueType": "lakes"
  },
  {
    "latitude": 46.3025859,
    "longitude": -86.7571899,
    "name": "Sixteenmile Lake",
    "natural": "water",
    "water": "lake",
    "uniqueType": "lakes"
  },
  {
    "latitude": 46.2049556,
    "longitude": -85.7417473,
    "name": "South Manistique Lake",
    "natural": "water",
    "water": "lake",
    "uniqueType": "lakes"
  },
  {
    "latitude": 46.2739113,
    "longitude": -86.6352485,
    "name": "Als Lake",
    "natural": "water",
    "water": "lake",
    "uniqueType": "lakes"
  },
  {
    "latitude": 46.466173,
    "longitude": -85.7445206,
    "name": "Buckeye Lake",
    "natural": "water",
    "water": "lake",
    "uniqueType": "lakes"
  },
  {
    "latitude": 46.5332579,
    "longitude": -86.1071187,
    "name": "Grass Lake",
    "natural": "water",
    "water": "lake",
    "uniqueType": "lakes"
  },
  {
    "latitude": 46.2274744,
    "longitude": -86.5864421,
    "name": "Grassy Lake",
    "natural": "water",
    "water": "lake",
    "uniqueType": "lakes"
  },
  {
    "latitude": 45.9790037,
    "longitude": -85.991267,
    "name": "Mcdonald Lake",
    "natural": "water",
    "water": "lake",
    "uniqueType": "lakes"
  },
  {
    "latitude": 46.4656874,
    "longitude": -85.7085343,
    "name": "Murray Lake",
    "natural": "water",
    "water": "lake",
    "uniqueType": "lakes"
  },
  {
    "latitude": 46.3043518,
    "longitude": -84.9516552,
    "natural": "water",
    "water": "lake",
    "uniqueType": "lakes"
  },
  {
    "latitude": 46.5055629,
    "longitude": -86.0832581,
    "name": "Lambert Lake",
    "natural": "water",
    "water": "lake",
    "uniqueType": "lakes"
  },
  {
    "latitude": 46.4665025,
    "longitude": -85.8117497,
    "name": "Camp Seven Lake",
    "natural": "water",
    "water": "lake",
    "uniqueType": "lakes"
  },
  {
    "latitude": 46.1984985,
    "longitude": -86.5571104,
    "name": "Cookson Lake",
    "natural": "water",
    "water": "lake",
    "uniqueType": "lakes"
  },
  {
    "latitude": 46.454315,
    "longitude": -86.1829267,
    "name": "Driggs Lake",
    "natural": "water",
    "water": "lake",
    "uniqueType": "lakes"
  },
  {
    "latitude": 46.0180679,
    "longitude": -84.1121149,
    "name": "Foreman Lake",
    "natural": "water",
    "water": "lake",
    "uniqueType": "lakes"
  },
  {
    "latitude": 46.2918163,
    "longitude": -86.8343162,
    "name": "Lake Seventeen",
    "natural": "water",
    "water": "lake",
    "uniqueType": "lakes"
  },
  {
    "latitude": 46.235553,
    "longitude": -85.8618395,
    "name": "Little Mud Lake",
    "natural": "water",
    "water": "lake",
    "uniqueType": "lakes"
  },
  {
    "latitude": 46.1331038,
    "longitude": -85.8797228,
    "name": "Moon Lake",
    "natural": "water",
    "water": "lake",
    "uniqueType": "lakes"
  },
  {
    "latitude": 46.1434262,
    "longitude": -85.1839687,
    "name": "Strouble Lake",
    "natural": "water",
    "water": "lake",
    "uniqueType": "lakes"
  },
  {
    "latitude": 46.2602036,
    "longitude": -86.7501533,
    "name": "Wheelbarrow Lake",
    "natural": "water",
    "water": "lake",
    "uniqueType": "lakes"
  },
  {
    "latitude": 46.0320434,
    "longitude": -86.6153774,
    "name": "Chicago Lake",
    "natural": "water",
    "water": "lake",
    "uniqueType": "lakes"
  },
  {
    "latitude": 46.1423547,
    "longitude": -85.5174352,
    "name": "Millecoquins Lake",
    "natural": "water",
    "water": "lake",
    "uniqueType": "lakes"
  },
  {
    "latitude": 46.2499513,
    "longitude": -86.804185,
    "name": "Paquette Lake",
    "natural": "water",
    "water": "lake",
    "uniqueType": "lakes"
  },
  {
    "latitude": 46.2450773,
    "longitude": -86.5468553,
    "name": "Big Island Lake",
    "natural": "water",
    "water": "lake",
    "uniqueType": "lakes"
  },
  {
    "latitude": 46.4688875,
    "longitude": -85.9771404,
    "name": "Dutch Fred Lake",
    "natural": "water",
    "water": "lake",
    "uniqueType": "lakes"
  },
  {
    "latitude": 46.4422398,
    "longitude": -84.7678267,
    "name": "Pendills Lake",
    "natural": "water",
    "water": "lake",
    "uniqueType": "lakes"
  },
  {
    "latitude": 45.9544989,
    "longitude": -84.8716486,
    "name": "Round Lake",
    "natural": "water",
    "water": "lake",
    "uniqueType": "lakes"
  },
  {
    "latitude": 46.2902187,
    "longitude": -86.6553687,
    "name": "Lost Lake",
    "natural": "water",
    "water": "lake",
    "uniqueType": "lakes"
  },
  {
    "latitude": 46.2832243,
    "longitude": -86.7379793,
    "name": "Shallow Lake",
    "natural": "water",
    "water": "lake",
    "uniqueType": "lakes"
  },
  {
    "latitude": 46.4854721,
    "longitude": -86.1486164,
    "name": "Stanley Lake",
    "natural": "water",
    "water": "lake",
    "uniqueType": "lakes"
  },
  {
    "latitude": 46.2642299,
    "longitude": -86.6481189,
    "name": "Island Lake",
    "natural": "water",
    "water": "lake",
    "uniqueType": "lakes"
  },
  {
    "latitude": 46.3942635,
    "longitude": -86.8335594,
    "name": "Au Train Lake",
    "natural": "water",
    "water": "lake",
    "uniqueType": "lakes"
  },
  {
    "latitude": 46.2331753,
    "longitude": -86.6535634,
    "name": "Bar Lake",
    "natural": "water",
    "water": "lake",
    "uniqueType": "lakes"
  },
  {
    "latitude": 46.1184264,
    "longitude": -84.8123824,
    "name": "East Lake",
    "natural": "water",
    "water": "lake",
    "uniqueType": "lakes"
  },
  {
    "latitude": 46.1983418,
    "longitude": -86.5139999,
    "name": "Little Island Lake",
    "natural": "water",
    "water": "lake",
    "uniqueType": "lakes"
  },
  {
    "latitude": 46.4201405,
    "longitude": -84.9985642,
    "name": "Piatt Lake",
    "natural": "water",
    "water": "lake",
    "uniqueType": "lakes"
  },
  {
    "latitude": 45.726331,
    "longitude": -86.9403768,
    "name": "Sandstrom Lake",
    "natural": "water",
    "water": "lake",
    "uniqueType": "lakes"
  },
  {
    "latitude": 46.0320871,
    "longitude": -85.6262942,
    "name": "Sherman Pond",
    "natural": "water",
    "water": "lake",
    "uniqueType": "lakes"
  },
  {
    "latitude": 46.2317807,
    "longitude": -85.8336769,
    "name": "Manistique Lake",
    "natural": "water",
    "water": "lake",
    "wikipedia": "en:Manistique Lake",
    "uniqueType": "lakes"
  },
  {
    "latitude": 46.1197235,
    "longitude": -85.7452782,
    "name": "Mitten Lake",
    "natural": "water",
    "water": "lake",
    "uniqueType": "lakes"
  },
  {
    "latitude": 46.4816156,
    "longitude": -85.776224,
    "natural": "water",
    "water": "lake",
    "uniqueType": "lakes"
  },
  {
    "latitude": 46.1328117,
    "longitude": -85.9313263,
    "name": "Chip Lake",
    "natural": "water",
    "water": "lake",
    "uniqueType": "lakes"
  },
  {
    "latitude": 46.0809524,
    "longitude": -86.5630802,
    "name": "Eva Lake",
    "natural": "water",
    "water": "lake",
    "uniqueType": "lakes"
  },
  {
    "latitude": 46.4544962,
    "longitude": -85.8125597,
    "name": "Long Lake",
    "natural": "water",
    "water": "lake",
    "uniqueType": "lakes"
  },
  {
    "latitude": 46.5041689,
    "longitude": -86.3209836,
    "name": "Long Lake",
    "natural": "water",
    "water": "lake",
    "uniqueType": "lakes"
  },
  {
    "latitude": 46.1627498,
    "longitude": -86.571435,
    "name": "Swan Lake",
    "natural": "water",
    "water": "lake",
    "uniqueType": "lakes"
  },
  {
    "latitude": 46.2072547,
    "longitude": -86.5943374,
    "name": "Wedge Lake",
    "natural": "water",
    "water": "lake",
    "uniqueType": "lakes"
  },
  {
    "latitude": 45.6091732,
    "longitude": -84.3459926,
    "name": "Duck Lake",
    "natural": "water",
    "water": "lake",
    "uniqueType": "lakes"
  },
  {
    "latitude": 46.0665867,
    "longitude": -85.7796748,
    "name": "Milakokia Lake",
    "natural": "water",
    "water": "lake",
    "uniqueType": "lakes"
  },
  {
    "latitude": 46.6130334,
    "longitude": -85.2789473,
    "name": "Betsy Lake",
    "natural": "water",
    "water": "lake",
    "wikipedia": "en:Betsy Lake (Luce County, Michigan)",
    "uniqueType": "lakes"
  },
  {
    "latitude": 46.4553138,
    "longitude": -85.5924821,
    "name": "Donut Lake",
    "natural": "water",
    "water": "lake",
    "uniqueType": "lakes"
  },
  {
    "latitude": 46.219634,
    "longitude": -86.641498,
    "name": "Fish Lake",
    "natural": "water",
    "water": "lake",
    "uniqueType": "lakes"
  },
  {
    "latitude": 46.0454264,
    "longitude": -86.7943792,
    "name": "Greens Lake",
    "natural": "water",
    "water": "lake",
    "uniqueType": "lakes"
  },
  {
    "latitude": 46.5142634,
    "longitude": -86.245899,
    "name": "Nevins Lake",
    "natural": "water",
    "water": "lake",
    "uniqueType": "lakes"
  },
  {
    "latitude": 46.1249616,
    "longitude": -86.557249,
    "name": "Swamp Lake",
    "natural": "water",
    "water": "lake",
    "uniqueType": "lakes"
  },
  {
    "latitude": 46.1614597,
    "longitude": -86.5954154,
    "name": "Toms Lake",
    "natural": "water",
    "water": "lake",
    "wikipedia": "en:Toms Lake",
    "uniqueType": "lakes"
  },
  {
    "latitude": 46.0071893,
    "longitude": -84.0045315,
    "name": "Caribou Lake",
    "natural": "water",
    "water": "lake",
    "uniqueType": "lakes"
  },
  {
    "latitude": 46.5342214,
    "longitude": -86.0900353,
    "name": "Sand Lake",
    "natural": "water",
    "water": "lake",
    "uniqueType": "lakes"
  },
  {
    "latitude": 46.0241094,
    "longitude": -86.3237202,
    "name": "Indian Lake",
    "natural": "water",
    "water": "lake",
    "wikipedia": "en:Indian Lake (Schoolcraft County, Michigan)",
    "elevation": "186",
    "uniqueType": "lakes"
  },
  {
    "latitude": 46.2118606,
    "longitude": -85.8879501,
    "name": "Kennedy Lake",
    "natural": "water",
    "water": "lake",
    "uniqueType": "lakes"
  },
  {
    "latitude": 46.3910313,
    "longitude": -86.7139193,
    "name": "Perch Lake",
    "natural": "water",
    "water": "lake",
    "uniqueType": "lakes"
  },
  {
    "latitude": 46.2379124,
    "longitude": -85.4268583,
    "name": "Pullup Lake",
    "natural": "water",
    "water": "lake",
    "uniqueType": "lakes"
  },
  {
    "latitude": 46.1474565,
    "longitude": -85.8825111,
    "name": "Tee Lake",
    "natural": "water",
    "water": "lake",
    "uniqueType": "lakes"
  },
  {
    "latitude": 46.5115143,
    "longitude": -86.3722794,
    "name": "Section Thirtysix Lake",
    "natural": "water",
    "water": "lake",
    "uniqueType": "lakes"
  },
  {
    "latitude": 46.1601291,
    "longitude": -86.4699143,
    "name": "Bass Lake",
    "natural": "water",
    "water": "lake",
    "uniqueType": "lakes"
  },
  {
    "latitude": 46.6003233,
    "longitude": -85.1768125,
    "name": "Cabin Lake",
    "natural": "water",
    "water": "lake",
    "uniqueType": "lakes"
  },
  {
    "latitude": 46.5386935,
    "longitude": -86.1219682,
    "name": "Loon Lake",
    "natural": "water",
    "water": "lake",
    "uniqueType": "lakes"
  },
  {
    "latitude": 45.9130693,
    "longitude": -86.6568658,
    "name": "Moss Lake",
    "natural": "water",
    "water": "lake",
    "wikipedia": "en:Moss Lake (Delta County, Michigan)",
    "uniqueType": "lakes"
  },
  {
    "latitude": 48.070929,
    "longitude": -88.7229012,
    "name": "Chickenbone Lake",
    "natural": "water",
    "water": "lake",
    "uniqueType": "lakes"
  },
  {
    "latitude": 48.0307925,
    "longitude": -88.7188197,
    "name": "Intermediate Lake",
    "natural": "water",
    "water": "lake",
    "uniqueType": "lakes"
  },
  {
    "latitude": 48.0912207,
    "longitude": -88.6254696,
    "name": "Lake Benson",
    "natural": "water",
    "water": "lake",
    "uniqueType": "lakes"
  },
  {
    "latitude": 47.9704724,
    "longitude": -89.0066778,
    "name": "Lake Desor",
    "natural": "water",
    "water": "lake",
    "uniqueType": "lakes"
  },
  {
    "latitude": 48.0476925,
    "longitude": -88.8073492,
    "name": "Lake Harvey",
    "natural": "water",
    "water": "lake",
    "uniqueType": "lakes"
  },
  {
    "latitude": 48.1021257,
    "longitude": -88.6055936,
    "name": "Lake Ojibway",
    "natural": "water",
    "water": "lake",
    "uniqueType": "lakes"
  },
  {
    "latitude": 48.0401256,
    "longitude": -88.7168217,
    "name": "Lake Richie",
    "natural": "water",
    "water": "lake",
    "uniqueType": "lakes"
  },
  {
    "latitude": 48.1060189,
    "longitude": -88.6583618,
    "name": "Lake Shesheeb",
    "natural": "water",
    "water": "lake",
    "uniqueType": "lakes"
  },
  {
    "latitude": 48.054475,
    "longitude": -88.7186698,
    "name": "LeSage Lake",
    "natural": "water",
    "water": "lake",
    "uniqueType": "lakes"
  },
  {
    "latitude": 47.983924,
    "longitude": -88.8554923,
    "name": "Siskiwit Lake",
    "natural": "water",
    "water": "lake",
    "wikipedia": "en:Siskiwit Lake (Isle Royale)",
    "elevation": "201",
    "uniqueType": "lakes"
  },
  {
    "latitude": 48.072569,
    "longitude": -88.6089238,
    "name": "Sumner Lake",
    "natural": "water",
    "water": "lake",
    "uniqueType": "lakes"
  },
  {
    "latitude": 42.0530429,
    "longitude": -84.3953856,
    "name": "Lake Somerset",
    "natural": "water",
    "water": "lake",
    "elevation": "312",
    "uniqueType": "lakes"
  },
  {
    "latitude": 43.93282,
    "longitude": -86.411767,
    "name": "Pere Marquette Lake",
    "natural": "water",
    "water": "lake",
    "uniqueType": "lakes"
  },
  {
    "latitude": 43.2647477,
    "longitude": -84.8894836,
    "name": "Duck Lake",
    "natural": "water",
    "water": "lake",
    "description": "Shallow lake, with a deep but diffuse lakebed.\nFloatplane landings possible on heading 45 north, with consideration for wind and watercraft.",
    "uniqueType": "lakes"
  },
  {
    "latitude": 43.1271005,
    "longitude": -84.7011085,
    "name": "Rainbow Lake",
    "natural": "water",
    "water": "lake",
    "uniqueType": "lakes"
  },
  {
    "latitude": 43.2394094,
    "longitude": -86.2969693,
    "name": "Muskegon Lake",
    "natural": "water",
    "water": "lake",
    "wikipedia": "en:Muskegon Lake",
    "uniqueType": "lakes"
  },
  {
    "latitude": 44.2114125,
    "longitude": -86.2779918,
    "name": "Manistee Lake",
    "natural": "water",
    "water": "lake",
    "wikipedia": "en:Manistee Lake (Manistee County, Michigan)",
    "uniqueType": "lakes"
  },
  {
    "latitude": 44.3387586,
    "longitude": -85.2230449,
    "name": "Lake Missaukee",
    "natural": "water",
    "water": "lake",
    "uniqueType": "lakes"
  },
  {
    "latitude": 42.1848595,
    "longitude": -85.5244411,
    "name": "Long Lake",
    "natural": "water",
    "water": "lake",
    "uniqueType": "lakes"
  },
  {
    "latitude": 45.2106605,
    "longitude": -83.4892944,
    "name": "Long Lake",
    "natural": "water",
    "water": "lake",
    "wikipedia": "en:Long Lake (Alpena County, Michigan)",
    "uniqueType": "lakes"
  },
  {
    "latitude": 41.8961502,
    "longitude": -84.9124065,
    "name": "Marble Lake",
    "natural": "water",
    "water": "lake",
    "uniqueType": "lakes"
  },
  {
    "latitude": 41.803302,
    "longitude": -85.9845295,
    "name": "Painter/Juno/Christiana Lake",
    "natural": "water",
    "water": "lake",
    "uniqueType": "lakes"
  },
  {
    "latitude": 41.9062525,
    "longitude": -85.9074783,
    "name": "Donnell Lake",
    "natural": "water",
    "water": "lake",
    "uniqueType": "lakes"
  },
  {
    "latitude": 41.8497442,
    "longitude": -85.8685293,
    "name": "Shavehead Lake",
    "natural": "water",
    "water": "lake",
    "uniqueType": "lakes"
  },
  {
    "latitude": 45.2904826,
    "longitude": -83.4978856,
    "name": "Grand Lake",
    "natural": "water",
    "water": "lake",
    "wikipedia": "en:Grand Lake (Michigan)",
    "uniqueType": "lakes"
  },
  {
    "latitude": 43.0761106,
    "longitude": -86.2135617,
    "name": "Spring Lake",
    "natural": "water",
    "water": "lake",
    "uniqueType": "lakes"
  },
  {
    "latitude": 44.7210815,
    "longitude": -85.8164082,
    "name": "Bellows Lake",
    "natural": "water",
    "water": "lake",
    "uniqueType": "lakes"
  },
  {
    "latitude": 44.6709426,
    "longitude": -85.7929496,
    "name": "Cedar Hedge Lake",
    "natural": "water",
    "water": "lake",
    "wikipedia": "en:Cedar Hedge Lake",
    "uniqueType": "lakes"
  },
  {
    "latitude": 44.7676275,
    "longitude": -85.9274821,
    "name": "Pearl Lake",
    "natural": "water",
    "water": "lake",
    "uniqueType": "lakes"
  },
  {
    "latitude": 42.6124106,
    "longitude": -85.4832967,
    "name": "Hall Lake",
    "natural": "water",
    "water": "lake",
    "uniqueType": "lakes"
  },
  {
    "latitude": 42.1564207,
    "longitude": -84.986501,
    "name": "Nottawa Lake",
    "natural": "water",
    "water": "lake",
    "uniqueType": "lakes"
  },
  {
    "latitude": 45.4128777,
    "longitude": -84.8649327,
    "name": "Crooked Lake",
    "natural": "water",
    "water": "lake",
    "wikipedia": "en:Crooked Lake (Michigan)",
    "uniqueType": "lakes"
  },
  {
    "latitude": 44.9312595,
    "longitude": -84.5098325,
    "name": "Big Bass Lake",
    "natural": "water",
    "water": "lake",
    "uniqueType": "lakes"
  },
  {
    "latitude": 45.236933,
    "longitude": -83.5924646,
    "natural": "water",
    "water": "lake",
    "uniqueType": "lakes"
  },
  {
    "latitude": 44.9491442,
    "longitude": -84.7492365,
    "name": "Lake Manuka",
    "natural": "water",
    "water": "lake",
    "uniqueType": "lakes"
  },
  {
    "latitude": 44.6823971,
    "longitude": -83.6120363,
    "name": "Jewell Lake",
    "natural": "water",
    "water": "lake",
    "uniqueType": "lakes"
  },
  {
    "latitude": 45.4810478,
    "longitude": -84.1186212,
    "name": "Ocqueoc Lake",
    "natural": "water",
    "water": "lake",
    "uniqueType": "lakes"
  },
  {
    "latitude": 44.8413909,
    "longitude": -84.298547,
    "name": "Tea Lake",
    "natural": "water",
    "water": "lake",
    "uniqueType": "lakes"
  },
  {
    "latitude": 44.1153005,
    "longitude": -84.4553969,
    "name": "Lake Lancer",
    "natural": "water",
    "water": "lake",
    "uniqueType": "lakes"
  },
  {
    "latitude": 44.0758486,
    "longitude": -85.9882758,
    "name": "Bass Lake",
    "natural": "water",
    "water": "lake",
    "uniqueType": "lakes"
  },
  {
    "latitude": 43.6765467,
    "longitude": -85.8211405,
    "natural": "water",
    "water": "lake",
    "uniqueType": "lakes"
  },
  {
    "latitude": 43.8303417,
    "longitude": -84.7681158,
    "name": "Lake Shamrock",
    "natural": "water",
    "water": "lake",
    "uniqueType": "lakes"
  },
  {
    "latitude": 43.9342304,
    "longitude": -84.9944777,
    "name": "Doc & Tom Lake",
    "natural": "water",
    "water": "lake",
    "uniqueType": "lakes"
  },
  {
    "latitude": 43.6915831,
    "longitude": -84.978239,
    "name": "Lake of the Hills",
    "natural": "water",
    "water": "lake",
    "uniqueType": "lakes"
  },
  {
    "latitude": 42.0721856,
    "longitude": -84.4215759,
    "name": "Lake Le Ann",
    "natural": "water",
    "water": "lake",
    "elevation": "327",
    "uniqueType": "lakes"
  },
  {
    "latitude": 43.2722691,
    "longitude": -85.3596858,
    "name": "Maston Lake",
    "natural": "water",
    "water": "lake",
    "uniqueType": "lakes"
  },
  {
    "latitude": 43.1946302,
    "longitude": -85.3451908,
    "name": "Horseshoe Lake",
    "natural": "water",
    "water": "lake",
    "uniqueType": "lakes"
  },
  {
    "latitude": 43.1720577,
    "longitude": -85.4156933,
    "name": "Angel Lake",
    "natural": "water",
    "water": "lake",
    "uniqueType": "lakes"
  },
  {
    "latitude": 44.038346,
    "longitude": -86.4938486,
    "name": "Lost Lake",
    "natural": "water",
    "water": "lake",
    "uniqueType": "lakes"
  },
  {
    "latitude": 43.1550171,
    "longitude": -85.3621742,
    "name": "Little Wabasis Lake",
    "natural": "water",
    "water": "lake",
    "uniqueType": "lakes"
  },
  {
    "latitude": 43.4557073,
    "longitude": -85.2209831,
    "name": "Townline Lake",
    "natural": "water",
    "water": "lake",
    "uniqueType": "lakes"
  },
  {
    "latitude": 44.6192111,
    "longitude": -86.2205041,
    "name": "Betsie Lake",
    "natural": "water",
    "water": "lake",
    "uniqueType": "lakes"
  },
  {
    "latitude": 43.8507655,
    "longitude": -85.2873983,
    "name": "Saddlebag Lake",
    "natural": "water",
    "water": "lake",
    "uniqueType": "lakes"
  },
  {
    "latitude": 43.850097,
    "longitude": -85.2166353,
    "name": "Wrights Lake",
    "natural": "water",
    "water": "lake",
    "uniqueType": "lakes"
  },
  {
    "latitude": 43.4441382,
    "longitude": -85.2810557,
    "name": "Tamarack Lake",
    "natural": "water",
    "water": "lake",
    "uniqueType": "lakes"
  },
  {
    "latitude": 44.1299274,
    "longitude": -85.967514,
    "name": "Harper Lake",
    "natural": "water",
    "water": "lake",
    "uniqueType": "lakes"
  },
  {
    "latitude": 43.5952084,
    "longitude": -85.3104855,
    "name": "Lake of the Clouds",
    "natural": "water",
    "water": "lake",
    "uniqueType": "lakes"
  },
  {
    "latitude": 43.7000389,
    "longitude": -86.4837263,
    "name": "Lake Holiday",
    "natural": "water",
    "water": "lake",
    "uniqueType": "lakes"
  },
  {
    "latitude": 42.4887554,
    "longitude": -85.5271176,
    "name": "Pine Lake",
    "natural": "water",
    "water": "lake",
    "uniqueType": "lakes"
  },
  {
    "latitude": 44.4292225,
    "longitude": -83.9351741,
    "name": "Au Sable Lake",
    "natural": "water",
    "water": "lake",
    "uniqueType": "lakes"
  },
  {
    "latitude": 44.4004787,
    "longitude": -84.0327831,
    "name": "Devoe Lake",
    "natural": "water",
    "water": "lake",
    "uniqueType": "lakes"
  },
  {
    "latitude": 44.3554661,
    "longitude": -83.9654296,
    "name": "Sage Lake",
    "natural": "water",
    "water": "lake",
    "uniqueType": "lakes"
  },
  {
    "latitude": 42.6772014,
    "longitude": -83.6365105,
    "name": "Charlick Lake",
    "natural": "water",
    "water": "lake",
    "uniqueType": "lakes"
  },
  {
    "latitude": 42.5989995,
    "longitude": -83.3681744,
    "name": "Dow Lake",
    "type": "LakePond",
    "natural": "water",
    "water": "lake",
    "uniqueType": "lakes"
  },
  {
    "latitude": 42.4782698,
    "longitude": -85.463487,
    "name": "Crooked Lake",
    "natural": "water",
    "water": "lake",
    "uniqueType": "lakes"
  },
  {
    "latitude": 41.8499823,
    "longitude": -86.449726,
    "name": "Wagner Lake",
    "natural": "water",
    "water": "lake",
    "uniqueType": "lakes"
  },
  {
    "latitude": 42.1576573,
    "longitude": -83.9394908,
    "name": "Columbia Lake",
    "natural": "water",
    "water": "lake",
    "uniqueType": "lakes"
  },
  {
    "latitude": 42.1138734,
    "longitude": -86.0049167,
    "name": "Lake of the Woods",
    "natural": "water",
    "water": "lake",
    "uniqueType": "lakes"
  },
  {
    "latitude": 44.9063635,
    "longitude": -85.1690121,
    "name": "Finn Lake",
    "natural": "water",
    "water": "lake",
    "uniqueType": "lakes"
  },
  {
    "latitude": 45.5720131,
    "longitude": -84.7134408,
    "name": "Douglas Lake",
    "natural": "water",
    "water": "lake",
    "wikipedia": "en:Douglas Lake (Cheboygan County, Michigan)",
    "uniqueType": "lakes"
  },
  {
    "latitude": 42.2342985,
    "longitude": -85.6579526,
    "name": "Atwater Millpond",
    "natural": "water",
    "water": "lake",
    "uniqueType": "lakes"
  },
  {
    "latitude": 42.6785313,
    "longitude": -85.7994784,
    "name": "Lake Monterey",
    "natural": "water",
    "water": "lake",
    "uniqueType": "lakes"
  },
  {
    "latitude": 44.0285751,
    "longitude": -84.8017478,
    "name": "Budd Lake",
    "natural": "water",
    "water": "lake",
    "wikipedia": "en:Budd Lake (Michigan)",
    "elevation": "339",
    "uniqueType": "lakes"
  },
  {
    "latitude": 46.1660868,
    "longitude": -86.6067713,
    "name": "Straits Lake",
    "natural": "water",
    "water": "lake",
    "uniqueType": "lakes"
  },
  {
    "latitude": 46.1992219,
    "longitude": -89.3965923,
    "name": "Mamie Lake",
    "natural": "water",
    "water": "lake",
    "uniqueType": "lakes"
  },
  {
    "latitude": 42.5966036,
    "longitude": -85.3319885,
    "name": "Twin Lakes",
    "natural": "water",
    "water": "lake",
    "uniqueType": "lakes"
  },
  {
    "latitude": 42.6759114,
    "longitude": -85.3481873,
    "name": "Algonquin Lake",
    "natural": "water",
    "water": "lake",
    "uniqueType": "lakes"
  },
  {
    "latitude": 42.507968,
    "longitude": -85.1516904,
    "name": "Taylor Lake",
    "natural": "water",
    "water": "lake",
    "uniqueType": "lakes"
  },
  {
    "latitude": 46.4852482,
    "longitude": -87.1161812,
    "name": "Sand Lake",
    "natural": "water",
    "water": "lake",
    "uniqueType": "lakes"
  },
  {
    "latitude": 46.4098489,
    "longitude": -87.0473181,
    "name": "Laughing Whitefish Lake",
    "natural": "water",
    "water": "lake",
    "uniqueType": "lakes"
  },
  {
    "latitude": 46.4350674,
    "longitude": -86.7109838,
    "name": "Furnace Lake",
    "natural": "water",
    "water": "lake",
    "uniqueType": "lakes"
  },
  {
    "latitude": 46.3709983,
    "longitude": -86.6424005,
    "name": "Swede Lake",
    "natural": "water",
    "water": "lake",
    "uniqueType": "lakes"
  },
  {
    "latitude": 46.3698261,
    "longitude": -86.5834215,
    "name": "Wetmore Lake",
    "natural": "water",
    "water": "lake",
    "uniqueType": "lakes"
  },
  {
    "latitude": 46.293388,
    "longitude": -85.7170908,
    "name": "North Manistique Lake",
    "natural": "water",
    "water": "lake",
    "uniqueType": "lakes"
  },
  {
    "latitude": 42.991353,
    "longitude": -83.6718424,
    "name": "Thread Lake",
    "natural": "water",
    "water": "lake",
    "uniqueType": "lakes"
  },
  {
    "latitude": 45.888898,
    "longitude": -86.3924317,
    "name": "Grass Lake",
    "natural": "water",
    "water": "lake",
    "uniqueType": "lakes"
  },
  {
    "latitude": 42.6051901,
    "longitude": -83.9106738,
    "name": "Thompson Lake",
    "alt_name": "Howell Lake",
    "natural": "water",
    "water": "lake",
    "uniqueType": "lakes"
  },
  {
    "latitude": 45.424892,
    "longitude": -87.8146648,
    "name": "Becker Lake",
    "alt_name": "Becher Lake",
    "natural": "water",
    "water": "lake",
    "uniqueType": "lakes"
  },
  {
    "latitude": 45.4220316,
    "longitude": -87.8195958,
    "name": "East Lake",
    "natural": "water",
    "water": "lake",
    "uniqueType": "lakes"
  },
  {
    "latitude": 45.4208947,
    "longitude": -87.8278225,
    "name": "Long Lake",
    "natural": "water",
    "water": "lake",
    "uniqueType": "lakes"
  },
  {
    "latitude": 44.0030961,
    "longitude": -84.5327898,
    "name": "Wiggin's Lake",
    "natural": "water",
    "water": "lake",
    "uniqueType": "lakes"
  },
  {
    "latitude": 42.2026832,
    "longitude": -83.7603767,
    "name": "Lohr Lake",
    "natural": "water",
    "water": "lake",
    "uniqueType": "lakes"
  },
  {
    "latitude": 46.2788426,
    "longitude": -87.9999995,
    "name": "Witch Lake",
    "natural": "water",
    "water": "lake",
    "uniqueType": "lakes"
  },
  {
    "latitude": 46.0562796,
    "longitude": -88.5165528,
    "name": "Chicagon Lake",
    "natural": "water",
    "water": "lake",
    "wikipedia": "en:Chicagon Lake",
    "uniqueType": "lakes"
  },
  {
    "latitude": 46.038323,
    "longitude": -88.5001337,
    "name": "Indian Lake",
    "natural": "water",
    "water": "lake",
    "uniqueType": "lakes"
  },
  {
    "latitude": 46.3897157,
    "longitude": -88.7211126,
    "name": "Lake Sainte Kathryn",
    "natural": "water",
    "water": "lake",
    "uniqueType": "lakes"
  },
  {
    "latitude": 46.2368431,
    "longitude": -89.6015524,
    "name": "Little Presque Isle Lake",
    "natural": "water",
    "water": "lake",
    "uniqueType": "lakes"
  },
  {
    "latitude": 44.935841,
    "longitude": -84.1835393,
    "name": "Avery Lake",
    "natural": "water",
    "water": "lake",
    "uniqueType": "lakes"
  },
  {
    "latitude": 45.1176012,
    "longitude": -83.9748941,
    "name": "Long Lake",
    "natural": "water",
    "water": "lake",
    "wikipedia": "en:Long Lake (Montmorency County, Michigan)",
    "uniqueType": "lakes"
  },
  {
    "latitude": 44.5076067,
    "longitude": -84.1417235,
    "name": "Island Lake",
    "natural": "water",
    "water": "lake",
    "uniqueType": "lakes"
  },
  {
    "latitude": 44.4090145,
    "longitude": -84.2902716,
    "name": "Clear Lake",
    "natural": "water",
    "water": "lake",
    "uniqueType": "lakes"
  },
  {
    "latitude": 44.2472957,
    "longitude": -84.4584878,
    "name": "East Twin Lake",
    "natural": "water",
    "water": "lake",
    "uniqueType": "lakes"
  },
  {
    "latitude": 44.2486751,
    "longitude": -84.4767361,
    "name": "West Twin Lake",
    "natural": "water",
    "water": "lake",
    "uniqueType": "lakes"
  },
  {
    "latitude": 44.3533164,
    "longitude": -85.2457509,
    "name": "Goose Lake",
    "natural": "water",
    "water": "lake",
    "uniqueType": "lakes"
  },
  {
    "latitude": 44.3483153,
    "longitude": -85.2465177,
    "name": "Little Goose Lake",
    "natural": "water",
    "water": "lake",
    "uniqueType": "lakes"
  },
  {
    "latitude": 44.3247686,
    "longitude": -85.370105,
    "name": "Long Lake",
    "natural": "water",
    "water": "lake",
    "uniqueType": "lakes"
  },
  {
    "latitude": 44.0255933,
    "longitude": -84.721192,
    "name": "Boathouse Lake",
    "natural": "water",
    "water": "lake",
    "uniqueType": "lakes"
  },
  {
    "latitude": 44.080487,
    "longitude": -84.7599556,
    "name": "Long Lake",
    "natural": "water",
    "water": "lake",
    "uniqueType": "lakes"
  },
  {
    "latitude": 44.0312168,
    "longitude": -85.3305388,
    "name": "Sunrise Lake",
    "natural": "water",
    "water": "lake",
    "uniqueType": "lakes"
  },
  {
    "latitude": 43.4352733,
    "longitude": -85.1159882,
    "name": "Fifth Lake",
    "natural": "water",
    "water": "lake",
    "uniqueType": "lakes"
  },
  {
    "latitude": 42.3916185,
    "longitude": -86.0520799,
    "name": "Saddle Lake",
    "natural": "water",
    "water": "lake",
    "uniqueType": "lakes"
  },
  {
    "latitude": 42.3439759,
    "longitude": -86.0171473,
    "name": "Upper Jeptha Lake",
    "natural": "water",
    "water": "lake",
    "uniqueType": "lakes"
  },
  {
    "latitude": 42.3284115,
    "longitude": -85.9941097,
    "name": "North Scott Lake",
    "natural": "water",
    "water": "lake",
    "uniqueType": "lakes"
  },
  {
    "latitude": 41.9343527,
    "longitude": -84.6243911,
    "name": "Winona Lake",
    "natural": "water",
    "water": "lake",
    "uniqueType": "lakes"
  },
  {
    "latitude": 44.5700812,
    "longitude": -84.0581204,
    "name": "Mack Lake",
    "natural": "water",
    "water": "lake",
    "uniqueType": "lakes"
  },
  {
    "latitude": 42.0335495,
    "longitude": -84.2226485,
    "name": "Dewey Lake",
    "natural": "water",
    "water": "lake",
    "uniqueType": "lakes"
  },
  {
    "latitude": 42.4346738,
    "longitude": -84.0304923,
    "name": "Patterson Lake",
    "natural": "water",
    "water": "lake",
    "uniqueType": "lakes"
  },
  {
    "latitude": 42.4274905,
    "longitude": -84.026943,
    "name": "Watson Lake",
    "natural": "water",
    "water": "lake",
    "uniqueType": "lakes"
  },
  {
    "latitude": 42.8706509,
    "longitude": -83.6933675,
    "name": "Lake Copneconic",
    "natural": "water",
    "water": "lake",
    "uniqueType": "lakes"
  },
  {
    "latitude": 42.8151979,
    "longitude": -83.2980246,
    "name": "Paint Lake",
    "natural": "water",
    "water": "lake",
    "description": "Renamed in 2022, \"In response to the Department of the Interior Secretarial Order 3404 this is the list of U.S. Board on Geographic Names approved official Sq_ replacement names.\"",
    "uniqueType": "lakes"
  },
  {
    "latitude": 44.9276306,
    "longitude": -84.6157464,
    "name": "Opal Lake",
    "natural": "water",
    "water": "lake",
    "uniqueType": "lakes"
  },
  {
    "latitude": 43.0919267,
    "longitude": -85.6592842,
    "name": "Little Pine Island Lake",
    "natural": "water",
    "water": "lake",
    "uniqueType": "lakes"
  },
  {
    "latitude": 42.8282164,
    "longitude": -83.7184958,
    "name": "Lake Fenton",
    "natural": "water",
    "water": "lake",
    "wikipedia": "en:Lake Fenton (Michigan)",
    "elevation": "266",
    "uniqueType": "lakes"
  },
  {
    "latitude": 44.9741954,
    "longitude": -84.308267,
    "name": "Gaylanta Lake",
    "natural": "water",
    "water": "lake",
    "uniqueType": "lakes"
  },
  {
    "latitude": 42.6899562,
    "longitude": -83.3415257,
    "name": "Wormer Lake",
    "natural": "water",
    "water": "lake",
    "elevation": "289",
    "uniqueType": "lakes"
  },
  {
    "latitude": 44.7307422,
    "longitude": -83.9126987,
    "name": "Island Lake",
    "natural": "water",
    "water": "lake",
    "uniqueType": "lakes"
  },
  {
    "latitude": 41.8978376,
    "longitude": -85.4957995,
    "name": "Lake Templene",
    "natural": "water",
    "water": "lake",
    "wikipedia": "en:Lake Templene",
    "uniqueType": "lakes"
  },
  {
    "latitude": 44.8298652,
    "longitude": -84.3230233,
    "name": "Little Bear Lake",
    "natural": "water",
    "water": "lake",
    "uniqueType": "lakes"
  },
  {
    "latitude": 44.8433841,
    "longitude": -84.3238726,
    "name": "Snyder Lake",
    "natural": "water",
    "water": "lake",
    "uniqueType": "lakes"
  },
  {
    "latitude": 44.7040345,
    "longitude": -83.7009073,
    "name": "Lake in the Green",
    "natural": "water",
    "water": "lake",
    "uniqueType": "lakes"
  },
  {
    "latitude": 44.6011094,
    "longitude": -83.6315929,
    "name": "Tubbs Lake",
    "natural": "water",
    "water": "lake",
    "uniqueType": "lakes"
  },
  {
    "latitude": 43.0855646,
    "longitude": -83.4292643,
    "name": "Pleasant Lake",
    "natural": "water",
    "water": "lake",
    "uniqueType": "lakes"
  },
  {
    "latitude": 46.6640451,
    "longitude": -90.9104188,
    "name": "Lake Superior",
    "natural": "water",
    "water": "lake",
    "wikipedia": "en:Lake Superior",
    "elevation": "184",
    "description": "Lake Superior is the largest of the Great Lakes of North America, and among freshwater lakes, it is the world's largest by surface area and the third-largest by volume. It holds 10% of the world's surface fresh water.",
    "uniqueType": "lakes"
  },
  {
    "latitude": 42.5100646,
    "longitude": -79.2941084,
    "name": "Lake Erie",
    "natural": "water",
    "water": "lake",
    "wikipedia": "en:Lake Erie",
    "elevation": "173",
    "uniqueType": "lakes"
  },
  {
    "latitude": 42.1524559,
    "longitude": -85.6278849,
    "name": "Sugarloaf Lake",
    "natural": "water",
    "water": "lake",
    "uniqueType": "lakes"
  },
  {
    "latitude": 44.9494221,
    "longitude": -84.8123951,
    "name": "Lake Arrowhead",
    "alt_name": "Buhl Lake",
    "natural": "water",
    "water": "lake",
    "uniqueType": "lakes"
  },
  {
    "latitude": 42.9215795,
    "longitude": -85.7363102,
    "name": "Luvis Lake",
    "natural": "water",
    "water": "lake",
    "uniqueType": "lakes"
  },
  {
    "latitude": 44.6004757,
    "longitude": -83.611236,
    "name": "Sprinkler Lake",
    "natural": "water",
    "water": "lake",
    "uniqueType": "lakes"
  },
  {
    "latitude": 42.5613492,
    "longitude": -82.6165762,
    "name": "Lake Saint Clair",
    "natural": "water",
    "water": "lake",
    "wikipedia": "en:Lake St. Clair",
    "uniqueType": "lakes"
  },
  {
    "latitude": 44.8370004,
    "longitude": -85.7401659,
    "name": "Lake Leelanau",
    "natural": "water",
    "water": "lake",
    "wikipedia": "en:Lake Leelanau",
    "uniqueType": "lakes"
  },
  {
    "latitude": 45.06133,
    "longitude": -85.2584641,
    "name": "Intermediate lake",
    "natural": "water",
    "water": "lake",
    "uniqueType": "lakes"
  },
  {
    "latitude": 44.6821334,
    "longitude": -85.6980148,
    "natural": "water",
    "water": "lake",
    "uniqueType": "lakes"
  },
  {
    "latitude": 45.528892,
    "longitude": -84.5448994,
    "name": "Mullett Lake",
    "natural": "water",
    "water": "lake",
    "wikipedia": "en:Mullett Lake",
    "uniqueType": "lakes"
  },
  {
    "latitude": 42.3225297,
    "longitude": -84.1167173,
    "name": "Crooked Lake",
    "type": "LakePond",
    "natural": "water",
    "water": "lake",
    "uniqueType": "lakes"
  },
  {
    "latitude": 45.6354547,
    "longitude": -84.7771912,
    "natural": "water",
    "water": "lake",
    "uniqueType": "lakes"
  },
  {
    "latitude": 42.6476072,
    "longitude": -86.2041196,
    "name": "Kalamazoo Lake",
    "natural": "water",
    "water": "lake",
    "uniqueType": "lakes"
  },
  {
    "latitude": 43.1130068,
    "longitude": -85.6379133,
    "name": "Freska Lake",
    "natural": "water",
    "water": "lake",
    "uniqueType": "lakes"
  },
  {
    "latitude": 44.5848389,
    "longitude": -85.3390464,
    "name": "Holbrook Lake",
    "natural": "water",
    "water": "lake",
    "uniqueType": "lakes"
  },
  {
    "latitude": 45.1902413,
    "longitude": -84.770663,
    "name": "Thumb Lake",
    "natural": "water",
    "water": "lake",
    "wikipedia": "en:Thumb Lake",
    "uniqueType": "lakes"
  },
  {
    "latitude": 45.1504743,
    "longitude": -84.7813012,
    "name": "Bows Lake",
    "natural": "water",
    "water": "lake",
    "uniqueType": "lakes"
  },
  {
    "latitude": 45.0646207,
    "longitude": -84.4812419,
    "name": "Lake Nineteen",
    "natural": "water",
    "water": "lake",
    "uniqueType": "lakes"
  },
  {
    "latitude": 44.9100834,
    "longitude": -84.7601266,
    "name": "Lake Tecon",
    "natural": "water",
    "water": "lake",
    "uniqueType": "lakes"
  },
  {
    "latitude": 43.2653835,
    "longitude": -85.329302,
    "name": "Bass Lake",
    "natural": "water",
    "water": "lake",
    "uniqueType": "lakes"
  },
  {
    "latitude": 42.1964877,
    "longitude": -86.291558,
    "name": "Paw Paw Lake",
    "natural": "water",
    "water": "lake",
    "wikipedia": "en:Paw Paw Lake",
    "uniqueType": "lakes"
  },
  {
    "latitude": 42.832132,
    "longitude": -83.7241468,
    "natural": "water",
    "water": "lake",
    "uniqueType": "lakes"
  },
  {
    "latitude": 42.571527,
    "longitude": -83.9559541,
    "natural": "water",
    "water": "lake",
    "uniqueType": "lakes"
  },
  {
    "latitude": 42.0562671,
    "longitude": -84.1199449,
    "name": "Evans Lake",
    "natural": "water",
    "water": "lake",
    "uniqueType": "lakes"
  },
  {
    "latitude": 44.0678159,
    "longitude": -85.9544606,
    "name": "Sauble Lakes",
    "natural": "water",
    "water": "lake",
    "uniqueType": "lakes"
  },
  {
    "latitude": 44.0277721,
    "longitude": -85.9897702,
    "name": "Twin Lakes",
    "natural": "water",
    "water": "lake",
    "uniqueType": "lakes"
  },
  {
    "latitude": 42.7577441,
    "longitude": -83.7546131,
    "name": "Runyan Lake",
    "natural": "water",
    "water": "lake",
    "uniqueType": "lakes"
  },
  {
    "latitude": 42.8476346,
    "longitude": -84.3265735,
    "name": "Leisure Lakes",
    "natural": "water",
    "water": "lake",
    "uniqueType": "lakes"
  },
  {
    "latitude": 43.8179818,
    "longitude": -85.2902245,
    "name": "Lake Miramichi",
    "natural": "water",
    "water": "lake",
    "uniqueType": "lakes"
  },
  {
    "latitude": 44.1211459,
    "longitude": -84.5762458,
    "name": "Island Lake",
    "natural": "water",
    "water": "lake",
    "uniqueType": "lakes"
  },
  {
    "latitude": 43.9270491,
    "longitude": -85.9300117,
    "name": "Nugent Lake",
    "natural": "water",
    "water": "lake",
    "uniqueType": "lakes"
  },
  {
    "latitude": 44.0807817,
    "longitude": -86.1848006,
    "name": "Gun Lake",
    "natural": "water",
    "water": "lake",
    "wikipedia": "en:Gun Lake (Mason County, Michigan)",
    "uniqueType": "lakes"
  },
  {
    "latitude": 43.2552957,
    "longitude": -85.0902697,
    "name": "Twin Stone Lakes",
    "natural": "water",
    "water": "lake",
    "uniqueType": "lakes"
  },
  {
    "latitude": 42.3952587,
    "longitude": -84.029838,
    "name": "Wild Goose Lake",
    "type": "LakePond",
    "natural": "water",
    "water": "lake",
    "uniqueType": "lakes"
  },
  {
    "latitude": 42.4132555,
    "longitude": -83.9827202,
    "name": "Crooked Lake",
    "type": "LakePond",
    "natural": "water",
    "water": "lake",
    "uniqueType": "lakes"
  },
  {
    "latitude": 42.4242435,
    "longitude": -83.9664912,
    "name": "Silver Lake",
    "type": "LakePond",
    "natural": "water",
    "water": "lake",
    "uniqueType": "lakes"
  },
  {
    "latitude": 42.4338723,
    "longitude": -84.0301742,
    "name": "Woodburn Lake",
    "natural": "water",
    "water": "lake",
    "uniqueType": "lakes"
  },
  {
    "latitude": 42.5236874,
    "longitude": -84.3388759,
    "name": "Hewes Lake",
    "natural": "water",
    "water": "lake",
    "uniqueType": "lakes"
  },
  {
    "latitude": 42.8166616,
    "longitude": -83.4469634,
    "name": "Bald Eagle Lake",
    "natural": "water",
    "water": "lake",
    "elevation": "296",
    "uniqueType": "lakes"
  },
  {
    "latitude": 42.7745819,
    "longitude": -83.8340385,
    "name": "Bennett Lake",
    "natural": "water",
    "water": "lake",
    "elevation": "261",
    "uniqueType": "lakes"
  },
  {
    "latitude": 42.7851075,
    "longitude": -83.8422674,
    "name": "Lobdell Lake",
    "natural": "water",
    "water": "lake",
    "uniqueType": "lakes"
  },
  {
    "latitude": 43.2039754,
    "longitude": -83.4486073,
    "name": "Lake Henson",
    "natural": "water",
    "water": "lake",
    "uniqueType": "lakes"
  },
  {
    "latitude": 42.6540719,
    "longitude": -83.0000916,
    "name": "Lake Villa Dioro",
    "natural": "water",
    "water": "lake",
    "uniqueType": "lakes"
  },
  {
    "latitude": 44.8931753,
    "longitude": -84.621896,
    "name": "Viking Lake",
    "natural": "water",
    "water": "lake",
    "uniqueType": "lakes"
  },
  {
    "latitude": 42.5276332,
    "longitude": -85.48951,
    "name": "Crystal Lake",
    "natural": "water",
    "water": "lake",
    "uniqueType": "lakes"
  },
  {
    "latitude": 42.8196617,
    "longitude": -83.5239778,
    "name": "McGinnis Lake",
    "natural": "water",
    "water": "lake",
    "uniqueType": "lakes"
  },
  {
    "latitude": 42.6967586,
    "longitude": -83.7806091,
    "name": "Lake Shannon",
    "natural": "water",
    "water": "lake",
    "elevation": "270",
    "uniqueType": "lakes"
  },
  {
    "latitude": 42.7476848,
    "longitude": -83.8567731,
    "name": "Louise Lake",
    "natural": "water",
    "water": "lake",
    "uniqueType": "lakes"
  },
  {
    "latitude": 42.3937374,
    "longitude": -84.3547994,
    "name": "Pleasant Lake",
    "natural": "water",
    "water": "lake",
    "uniqueType": "lakes"
  },
  {
    "latitude": 46.3306827,
    "longitude": -89.272349,
    "name": "County Line Lake",
    "natural": "water",
    "water": "lake",
    "uniqueType": "lakes"
  },
  {
    "latitude": 44.1645423,
    "longitude": -84.345515,
    "name": "Chatman Lake",
    "natural": "water",
    "water": "lake",
    "uniqueType": "lakes"
  },
  {
    "latitude": 44.1570391,
    "longitude": -84.3587459,
    "name": "Elk Lake",
    "natural": "water",
    "water": "lake",
    "uniqueType": "lakes"
  },
  {
    "latitude": 45.7457431,
    "longitude": -85.5491475,
    "name": "Font Lake",
    "natural": "water",
    "water": "lake",
    "uniqueType": "lakes"
  },
  {
    "latitude": 43.3328306,
    "longitude": -85.0833054,
    "name": "Hemmingway Lake",
    "natural": "water",
    "water": "lake",
    "uniqueType": "lakes"
  },
  {
    "latitude": 43.2218333,
    "longitude": -85.0643188,
    "name": "Hisington Lake",
    "natural": "water",
    "water": "lake",
    "uniqueType": "lakes"
  },
  {
    "latitude": 42.8029851,
    "longitude": -83.6686513,
    "name": "Dickinson Lake",
    "natural": "water",
    "water": "lake",
    "elevation": "270",
    "uniqueType": "lakes"
  },
  {
    "latitude": 42.8068726,
    "longitude": -83.6785842,
    "name": "Big Seven Lake",
    "natural": "water",
    "water": "lake",
    "elevation": "268",
    "uniqueType": "lakes"
  },
  {
    "latitude": 42.8564013,
    "longitude": -83.5288784,
    "name": "Hartwig Lake",
    "natural": "water",
    "water": "lake",
    "uniqueType": "lakes"
  },
  {
    "latitude": 44.9838685,
    "longitude": -84.5029611,
    "name": "Lake Louise",
    "natural": "water",
    "water": "lake",
    "uniqueType": "lakes"
  },
  {
    "latitude": 43.0190054,
    "longitude": -85.6283998,
    "name": "Lamberton Lake",
    "natural": "water",
    "water": "lake",
    "wikipedia": "en:Lamberton Lake",
    "uniqueType": "lakes"
  },
  {
    "latitude": 42.8681328,
    "longitude": -85.2052841,
    "name": "Morrison Lake",
    "natural": "water",
    "water": "lake",
    "uniqueType": "lakes"
  },
  {
    "latitude": 45.1315117,
    "longitude": -84.0231142,
    "name": "Grass Lake",
    "natural": "water",
    "water": "lake",
    "uniqueType": "lakes"
  },
  {
    "latitude": 43.9236222,
    "longitude": -84.9200207,
    "name": "Kilbonie Lake",
    "natural": "water",
    "water": "lake",
    "uniqueType": "lakes"
  },
  {
    "latitude": 45.2405389,
    "longitude": -85.2167752,
    "name": "Nowland Lake",
    "natural": "water",
    "water": "lake",
    "uniqueType": "lakes"
  },
  {
    "latitude": 42.8891097,
    "longitude": -83.4983892,
    "name": "Shinanguag Lake",
    "natural": "water",
    "water": "lake",
    "uniqueType": "lakes"
  },
  {
    "latitude": 48.0092112,
    "longitude": -88.7385915,
    "name": "Wood Lake",
    "natural": "water",
    "water": "lake",
    "uniqueType": "lakes"
  },
  {
    "latitude": 43.25019,
    "longitude": -85.5732799,
    "name": "Mirror Lake",
    "natural": "water",
    "water": "lake",
    "uniqueType": "lakes"
  },
  {
    "latitude": 41.8309609,
    "longitude": -84.9856786,
    "name": "Coldwater Lake",
    "natural": "water",
    "water": "lake",
    "wikipedia": "en:Coldwater Lake",
    "uniqueType": "lakes"
  },
  {
    "latitude": 41.8896792,
    "longitude": -84.9217736,
    "name": "Middle Lake",
    "natural": "water",
    "water": "lake",
    "uniqueType": "lakes"
  },
  {
    "latitude": 44.3110908,
    "longitude": -85.2652616,
    "name": "Lake Sapphire",
    "natural": "water",
    "water": "lake",
    "uniqueType": "lakes"
  },
  {
    "latitude": 42.5716565,
    "longitude": -83.5388784,
    "name": "Moss Lake",
    "natural": "water",
    "water": "lake",
    "uniqueType": "lakes"
  },
  {
    "latitude": 44.8598047,
    "longitude": -84.6142068,
    "name": "Section One Lake",
    "natural": "water",
    "water": "lake",
    "uniqueType": "lakes"
  },
  {
    "latitude": 44.4807894,
    "longitude": -83.8346588,
    "name": "Jose Lake",
    "natural": "water",
    "water": "lake",
    "uniqueType": "lakes"
  },
  {
    "latitude": 44.4876276,
    "longitude": -83.852713,
    "name": "Chain Lakes",
    "natural": "water",
    "water": "lake",
    "uniqueType": "lakes"
  },
  {
    "latitude": 44.3979932,
    "longitude": -83.9821646,
    "name": "George Lake",
    "natural": "water",
    "water": "lake",
    "uniqueType": "lakes"
  },
  {
    "latitude": 44.4095179,
    "longitude": -84.0117824,
    "name": "Grebe Lake",
    "natural": "water",
    "water": "lake",
    "uniqueType": "lakes"
  },
  {
    "latitude": 44.4406551,
    "longitude": -84.0186957,
    "natural": "water",
    "water": "lake",
    "uniqueType": "lakes"
  },
  {
    "latitude": 43.6671701,
    "longitude": -86.485951,
    "natural": "water",
    "water": "lake",
    "uniqueType": "lakes"
  },
  {
    "latitude": 44.7278628,
    "longitude": -85.2904128,
    "name": "Island Lake",
    "natural": "water",
    "water": "lake",
    "elevation": "282.9",
    "uniqueType": "lakes"
  },
  {
    "latitude": 45.1625635,
    "longitude": -85.2513977,
    "natural": "water",
    "water": "lake",
    "uniqueType": "lakes"
  },
  {
    "latitude": 46.0405287,
    "longitude": -88.8510091,
    "name": "Brule Lake",
    "natural": "water",
    "water": "lake",
    "NHD_date": "Wed Nov 19 00:00:00 CST 2003",
    "wikipedia": "en:Brule Lake",
    "uniqueType": "lakes"
  },
  {
    "latitude": 44.817884,
    "longitude": -85.0768989,
    "name": "Southwell Lake",
    "natural": "water",
    "water": "lake",
    "uniqueType": "lakes"
  },
  {
    "latitude": 44.4992322,
    "longitude": -84.9369458,
    "name": "Grass Lake",
    "natural": "water",
    "water": "lake",
    "uniqueType": "lakes"
  },
  {
    "latitude": 45.0651194,
    "longitude": -84.7507377,
    "name": "Porcupine Lakes",
    "natural": "water",
    "water": "lake",
    "uniqueType": "lakes"
  },
  {
    "latitude": 45.0847805,
    "longitude": -84.7164437,
    "name": "Olund Lake",
    "natural": "water",
    "water": "lake",
    "uniqueType": "lakes"
  },
  {
    "latitude": 44.9510102,
    "longitude": -84.2290786,
    "name": "Bass Lakes",
    "natural": "water",
    "water": "lake",
    "uniqueType": "lakes"
  },
  {
    "latitude": 45.1074996,
    "longitude": -84.2991943,
    "name": "Town Line Lakes",
    "natural": "water",
    "water": "lake",
    "uniqueType": "lakes"
  },
  {
    "latitude": 45.109584,
    "longitude": -84.2424795,
    "natural": "water",
    "water": "lake",
    "uniqueType": "lakes"
  },
  {
    "latitude": 42.1865993,
    "longitude": -85.9517205,
    "name": "Three Mile Lake",
    "natural": "water",
    "water": "lake",
    "uniqueType": "lakes"
  },
  {
    "latitude": 43.5806385,
    "longitude": -84.769885,
    "natural": "water",
    "water": "lake",
    "uniqueType": "lakes"
  },
  {
    "latitude": 44.9818759,
    "longitude": -84.4016967,
    "name": "Traverse Lakes",
    "natural": "water",
    "water": "lake",
    "uniqueType": "lakes"
  },
  {
    "latitude": 45.2432835,
    "longitude": -84.5682288,
    "natural": "water",
    "water": "lake",
    "uniqueType": "lakes"
  },
  {
    "latitude": 43.110253,
    "longitude": -85.3687413,
    "name": "Big Pine Island Lake",
    "natural": "water",
    "water": "lake",
    "uniqueType": "lakes"
  },
  {
    "latitude": 43.1184556,
    "longitude": -85.3671298,
    "name": "Twin Lakes",
    "natural": "water",
    "water": "lake",
    "uniqueType": "lakes"
  },
  {
    "latitude": 43.1453481,
    "longitude": -85.4312628,
    "name": "Davis Lake",
    "natural": "water",
    "water": "lake",
    "uniqueType": "lakes"
  },
  {
    "latitude": 43.2757964,
    "longitude": -85.2505614,
    "name": "Turk Lake",
    "natural": "water",
    "water": "lake",
    "uniqueType": "lakes"
  },
  {
    "latitude": 44.6204439,
    "longitude": -85.1643568,
    "name": "Twentyeight Lakes",
    "natural": "water",
    "water": "lake",
    "uniqueType": "lakes"
  },
  {
    "latitude": 45.2826253,
    "longitude": -84.0214028,
    "name": "Gorman Lakes",
    "natural": "water",
    "water": "lake",
    "uniqueType": "lakes"
  },
  {
    "latitude": 43.4625261,
    "longitude": -85.7860733,
    "name": "Sylvan Lake",
    "natural": "water",
    "water": "lake",
    "uniqueType": "lakes"
  },
  {
    "latitude": 43.8159385,
    "longitude": -85.2734243,
    "natural": "water",
    "water": "lake",
    "uniqueType": "lakes"
  },
  {
    "latitude": 43.6949194,
    "longitude": -85.8106902,
    "name": "Richmond Lake",
    "natural": "water",
    "water": "lake",
    "uniqueType": "lakes"
  },
  {
    "latitude": 42.9481085,
    "longitude": -85.6057473,
    "name": "Reeds Lake",
    "natural": "water",
    "water": "lake",
    "wikipedia": "en:Reeds Lake",
    "uniqueType": "lakes"
  },
  {
    "latitude": 44.876266,
    "longitude": -84.3222147,
    "name": "East Twin Lake",
    "natural": "water",
    "water": "lake",
    "uniqueType": "lakes"
  },
  {
    "latitude": 43.0755918,
    "longitude": -85.470708,
    "name": "Pickerel Lake",
    "natural": "water",
    "water": "lake",
    "uniqueType": "lakes"
  },
  {
    "latitude": 44.3165867,
    "longitude": -84.2621024,
    "name": "Heintz Lake",
    "natural": "water",
    "water": "lake",
    "uniqueType": "lakes"
  },
  {
    "latitude": 44.2230675,
    "longitude": -84.2998351,
    "natural": "water",
    "water": "lake",
    "uniqueType": "lakes"
  },
  {
    "latitude": 43.1402475,
    "longitude": -85.393893,
    "name": "Wabasis Lake",
    "natural": "water",
    "water": "lake",
    "uniqueType": "lakes"
  },
  {
    "latitude": 42.8563417,
    "longitude": -85.5680035,
    "natural": "water",
    "water": "lake",
    "uniqueType": "lakes"
  },
  {
    "latitude": 42.8573901,
    "longitude": -85.5694929,
    "natural": "water",
    "water": "lake",
    "uniqueType": "lakes"
  },
  {
    "latitude": 42.9789197,
    "longitude": -85.5786909,
    "natural": "water",
    "water": "lake",
    "uniqueType": "lakes"
  },
  {
    "latitude": 42.7351118,
    "longitude": -84.2194797,
    "natural": "water",
    "water": "lake",
    "uniqueType": "lakes"
  },
  {
    "latitude": 42.2057416,
    "longitude": -83.7725512,
    "natural": "water",
    "water": "lake",
    "uniqueType": "lakes"
  },
  {
    "latitude": 42.2235839,
    "longitude": -83.7609426,
    "natural": "water",
    "water": "lake",
    "uniqueType": "lakes"
  },
  {
    "latitude": 44.4208357,
    "longitude": -83.9276991,
    "natural": "water",
    "water": "lake",
    "uniqueType": "lakes"
  },
  {
    "latitude": 45.7289502,
    "longitude": -84.4155718,
    "natural": "water",
    "water": "lake",
    "uniqueType": "lakes"
  },
  {
    "latitude": 45.7513336,
    "longitude": -84.4137583,
    "name": "Lake Thompson",
    "natural": "water",
    "water": "lake",
    "uniqueType": "lakes"
  },
  {
    "latitude": 43.209263,
    "longitude": -85.6506982,
    "name": "Olin Lakes",
    "natural": "water",
    "water": "lake",
    "uniqueType": "lakes"
  },
  {
    "latitude": 44.7168772,
    "longitude": -85.3593983,
    "name": "Sand Lakes",
    "natural": "water",
    "water": "lake",
    "uniqueType": "lakes"
  },
  {
    "latitude": 43.8448902,
    "longitude": -85.264091,
    "name": "Alexander Lake",
    "natural": "water",
    "water": "lake",
    "uniqueType": "lakes"
  },
  {
    "latitude": 44.4079119,
    "longitude": -83.9006189,
    "name": "North Dease Lake",
    "natural": "water",
    "water": "lake",
    "uniqueType": "lakes"
  },
  {
    "latitude": 44.4049384,
    "longitude": -83.8631378,
    "name": "Little Long Lake",
    "natural": "water",
    "water": "lake",
    "uniqueType": "lakes"
  },
  {
    "latitude": 43.4672149,
    "longitude": -83.9600424,
    "name": "Haithco",
    "natural": "water",
    "water": "lake",
    "uniqueType": "lakes"
  },
  {
    "latitude": 42.8899276,
    "longitude": -83.3862908,
    "name": "Big Fish Lake",
    "natural": "water",
    "water": "lake",
    "uniqueType": "lakes"
  },
  {
    "latitude": 41.7816887,
    "longitude": -84.9824346,
    "name": "Huyck Lake",
    "natural": "water",
    "water": "lake",
    "elevation": "993",
    "uniqueType": "lakes"
  },
  {
    "latitude": 42.388014,
    "longitude": -84.0160783,
    "name": "North Lake",
    "type": "LakePond",
    "natural": "water",
    "water": "lake",
    "uniqueType": "lakes"
  },
  {
    "latitude": 43.0392794,
    "longitude": -83.6085905,
    "natural": "water",
    "water": "lake",
    "uniqueType": "lakes"
  },
  {
    "latitude": 44.1626154,
    "longitude": -85.5781754,
    "name": "Olga Lake",
    "natural": "water",
    "water": "lake",
    "uniqueType": "lakes"
  },
  {
    "latitude": 42.8107858,
    "longitude": -83.4249026,
    "name": "Wilson Lake",
    "natural": "water",
    "water": "lake",
    "elevation": "294.4",
    "uniqueType": "lakes"
  },
  {
    "latitude": 42.8137412,
    "longitude": -83.4347087,
    "name": "Tully Lake",
    "natural": "water",
    "water": "lake",
    "uniqueType": "lakes"
  },
  {
    "latitude": 44.4322874,
    "longitude": -85.1363019,
    "name": "Loon Lake",
    "natural": "water",
    "water": "lake",
    "uniqueType": "lakes"
  },
  {
    "latitude": 44.1527443,
    "longitude": -85.9996769,
    "name": "Beaver Lake",
    "natural": "water",
    "water": "lake",
    "uniqueType": "lakes"
  },
  {
    "latitude": 43.945664,
    "longitude": -85.9996623,
    "name": "Pine Island Lake",
    "natural": "water",
    "water": "lake",
    "uniqueType": "lakes"
  },
  {
    "latitude": 42.1821713,
    "longitude": -83.7603829,
    "natural": "water",
    "water": "lake",
    "uniqueType": "lakes"
  },
  {
    "latitude": 42.5044831,
    "longitude": -85.437144,
    "name": "Holcomb Lake",
    "natural": "water",
    "water": "lake",
    "uniqueType": "lakes"
  },
  {
    "latitude": 42.6271586,
    "longitude": -83.7450245,
    "name": "Round Lake",
    "natural": "water",
    "water": "lake",
    "uniqueType": "lakes"
  },
  {
    "latitude": 42.75235,
    "longitude": -85.6031323,
    "name": "Green Lake",
    "natural": "water",
    "water": "lake",
    "uniqueType": "lakes"
  },
  {
    "latitude": 42.1215929,
    "longitude": -84.1378579,
    "name": "Watkins Lake",
    "natural": "water",
    "water": "lake",
    "uniqueType": "lakes"
  },