[
  {
    "latitude": 42.5132512,
    "longitude": -83.4834792,
    "name": "Lakeshore Park",
    "address_city": "Novi",
    "address_zipcode": "48377",
    "address_state": "MI",
    "address_number": "601",
    "address_street": "South Lake Drive",
    "leisure": "park",
    "elevation": "286",
    "uniqueType": "park"
  },
  {
    "latitude": 42.355732,
    "longitude": -82.9483345,
    "name": "Maheras-Gentry Park",
    "address_city": "Detroit",
    "address_zipcode": "48215",
    "address_state": "MI",
    "address_number": "12550",
    "address_street": "Avondale Street",
    "leisure": "park",
    "operator": "City of Detroit",
    "operator_type": "public",
    "elevation": "177",
    "uniqueType": "park"
  },
  {
    "latitude": 42.7118979,
    "longitude": -83.1216961,
    "name": "Stony Creek Metropark",
    "leisure": "park",
    "operator": "Huron-Clinton Metroparks",
    "operator_type": "public",
    "wikipedia": "en:Stony Creek Metropark",
    "opening_hours": "Mo-Su 06:00-22:00",
    "elevation": "249",
    "uniqueType": "park"
  },
  {
    "latitude": 42.7536455,
    "longitude": -83.3186543,
    "name": "Orion Oaks County Park",
    "leisure": "park",
    "operator": "Oakland County Parks",
    "uniqueType": "park"
  },
  {
    "latitude": 47.9192237,
    "longitude": -88.8435712,
    "name": "Isle Royale National Park",
    "leisure": "park",
    "website": "https://www.nps.gov/isro/",
    "network": "National Parks of the United States",
    "operator": "National Park Service",
    "operator_type": "public",
    "protect_class": "2",
    "protected": "perpetuity",
    "protection_title": "National Park",
    "ownership": "national",
    "wikipedia": "en:Isle Royale National Park",
    "elevation": "198",
    "uniqueType": "park"
  },
  {
    "latitude": 46.765498,
    "longitude": -89.8880643,
    "name": "Porcupine Mountains Wilderness State Park",
    "address_city": "Ontonagon",
    "address_zipcode": "49953",
    "address_state": "MI",
    "address_number": "33303",
    "address_street": "Headquarters Road",
    "leisure": "park",
    "website": "https://www.michigan.gov/dnr/places/v-centers/porkies",
    "operator": "Michigan Department of Natural Resources",
    "operator_type": "government",
    "protect_class": "5",
    "protected": "perpetuity",
    "protection_title": "State Park",
    "ownership": "State",
    "wikipedia": "en:Porcupine Mountains",
    "note": "boundary approximate",
    "uniqueType": "park"
  },
  {
    "latitude": 42.473202,
    "longitude": -83.3788129,
    "name": "Heritage Park",
    "address_city": "Farmington Hills",
    "address_zipcode": "48336",
    "address_state": "MI",
    "fee": "no",
    "address_number": "24915",
    "address_street": "Farmington Rd",
    "leisure": "park",
    "elevation": "230",
    "uniqueType": "park"
  },
  {
    "latitude": 45.5689796,
    "longitude": -87.2496811,
    "name": "Fuller County Park",
    "address_city": "Bark River",
    "address_zipcode": "49807",
    "address_state": "MI",
    "address_number": "850",
    "address_street": "M 35",
    "leisure": "park",
    "phone": "+1 906 786 9041",
    "website": "https://deltacountyparks.com/?page_id=16",
    "uniqueType": "park"
  },
  {
    "latitude": 45.7415862,
    "longitude": -87.0380739,
    "name": "Aronson Island",
    "leisure": "park",
    "uniqueType": "park"
  },
  {
    "latitude": 45.9540445,
    "longitude": -86.2244321,
    "name": "Lakeview Park",
    "leisure": "park",
    "uniqueType": "park"
  },
  {
    "latitude": 42.5097749,
    "longitude": -84.6561127,
    "name": "Hall Street Park",
    "address_city": "Eaton Rapids",
    "address_zipcode": "48827",
    "address_state": "MI",
    "address_number": "316",
    "address_street": "South Main Street",
    "leisure": "park",
    "uniqueType": "park"
  },
  {
    "latitude": 42.3067018,
    "longitude": -84.2386503,
    "name": "Waterloo State Recreation Area",
    "address_city": "Chelsea",
    "address_zipcode": "48118",
    "address_state": "MI",
    "address_number": "16345",
    "address_street": "McClure Road",
    "leisure": "park",
    "operator": "Michigan Department of Natural Resources",
    "operator_type": "government",
    "protect_class": "5",
    "wikipedia": "en:Waterloo State Recreation Area",
    "elevation": "280",
    "note": "Began outline of Waterloo State Rec Area tracing over eastern portion from Pinckney State Rec map.",
    "uniqueType": "park"
  },
  {
    "latitude": 42.4349036,
    "longitude": -84.0582204,
    "name": "Pinckney State Recreation Area",
    "leisure": "park",
    "protect_class": "5",
    "wikipedia": "en:Pinckney State Recreation Area",
    "elevation": "285",
    "uniqueType": "park"
  },
  {
    "latitude": 42.2422021,
    "longitude": -83.7543596,
    "name": "Waymarket Park",
    "leisure": "park",
    "uniqueType": "park"
  },
  {
    "latitude": 42.3012056,
    "longitude": -83.3007239,
    "name": "Lower Rouge Parkway",
    "leisure": "park",
    "elevation": "182",
    "note": "Some boundaries are approximate in areas with mixed use or ownership.",
    "uniqueType": "park"
  },
  {
    "latitude": 42.5169114,
    "longitude": -83.8414759,
    "name": "Brighton State Recreation Area",
    "leisure": "park",
    "protect_class": "5",
    "wikipedia": "en:Brighton Recreation Area",
    "elevation": "287",
    "uniqueType": "park"
  },
  {
    "latitude": 42.5771559,
    "longitude": -83.5849381,
    "name": "Proud Lake State Recreation Area",
    "leisure": "park",
    "protect_class": "6",
    "protected": "perpetuity",
    "protection_title": "State Park",
    "ownership": "state",
    "wikipedia": "en:Proud Lake State Recreation Area",
    "elevation": "276",
    "note": "Left leisure tag as deprecated.",
    "uniqueType": "park"
  },
  {
    "latitude": 42.6681296,
    "longitude": -83.4737081,
    "name": "Pontiac Lake State Recreation Area",
    "leisure": "park",
    "website": "https://www2.dnr.state.mi.us/parksandtrails/details.aspx?id=485&type=SPRK",
    "protect_class": "5",
    "wikipedia": "en:Pontiac Lake Recreation Area",
    "elevation": "301",
    "uniqueType": "park"
  },
  {
    "latitude": 42.808478,
    "longitude": -83.6848131,
    "name": "Seven Lakes State Park",
    "address_city": "Holly",
    "address_zipcode": "48442",
    "address_state": "MI",
    "address_number": "14390",
    "address_street": "Fish Lake Road",
    "leisure": "park",
    "operator": "Michigan Department of Natural Resources",
    "operator_type": "public",
    "wikipedia": "en:Seven Lakes State Park",
    "elevation": "290",
    "uniqueType": "park"
  },
  {
    "latitude": 42.8144033,
    "longitude": -83.5741757,
    "name": "Holly State Recreation Area",
    "address_city": "Holly",
    "address_zipcode": "48442",
    "address_state": "MI",
    "address_number": "8100",
    "address_street": "Grange Hall Road",
    "leisure": "park",
    "protect_class": "6",
    "protected": "perpetuity",
    "protection_title": "State Park",
    "ownership": "state",
    "wikipedia": "en:Holly Recreation Area",
    "elevation": "303",
    "uniqueType": "park"
  },
  {
    "latitude": 47.4740673,
    "longitude": -87.8482188,
    "name": "Fort Wilkins Historic State Park",
    "address_city": "Copper Harbor",
    "address_zipcode": "49918",
    "address_state": "MI",
    "address_number": "15223",
    "address_street": "U.S. Highway 41",
    "leisure": "park",
    "website": "http://www.shorelinevisitorsguide.com/select-michigan-state-park-maps-and-guides/fort-wilkins-historic-state-park",
    "operator": "Michigan Department of Natural Resources",
    "operator_type": "public",
    "protect_class": "5",
    "protected": "perpetuity",
    "protection_title": "State Park",
    "ownership": "State",
    "wikipedia": "en:Fort Wilkins Historic State Park",
    "elevation": "189",
    "uniqueType": "park"
  },
  {
    "latitude": 47.2444094,
    "longitude": -88.4525747,
    "name": "Keweenaw National Historical Park Calumet Unit",
    "leisure": "park",
    "protect_class": "22",
    "uniqueType": "park"
  },
  {
    "latitude": 47.1382022,
    "longitude": -88.5773585,
    "name": "Keweenaw National Historical Park Quincy Unit",
    "leisure": "park",
    "uniqueType": "park"
  },
  {
    "latitude": 45.2420895,
    "longitude": -85.2246823,
    "name": "Nowland Lake Public Access",
    "leisure": "park",
    "uniqueType": "park"
  },
  {
    "latitude": 42.6462176,
    "longitude": -83.5886654,
    "name": "Highland State Recreation Area",
    "leisure": "park",
    "protect_class": "2",
    "protection_title": "State Park",
    "ownership": "State",
    "wikipedia": "en:Highland Recreation Area",
    "elevation": "302",
    "note": "Left leisure tag as deprecated.",
    "uniqueType": "park"
  },
  {
    "latitude": 42.3590633,
    "longitude": -83.3914746,
    "name": "Hines Parkway",
    "leisure": "park",
    "elevation": "186",
    "note": "Boundaries of recreation areas are arbitrary, roughly approximating area on individual maps when available. Boundaries of rec areas are drawn to outside edge of parkway to avoid a multipolygon parks within a park situation.",
    "uniqueType": "park"
  },
  {
    "latitude": 45.3750474,
    "longitude": -84.9548534,
    "name": "Pennsylvania Park",
    "leisure": "park",
    "elevation": "198",
    "uniqueType": "park"
  },
  {
    "latitude": 42.2470002,
    "longitude": -83.6903286,
    "name": "Sylvan Park",
    "leisure": "park",
    "website": "https://www.a2gov.org/departments/Parks-Recreation/parks-places/pages/sylvan.aspx",
    "operator": "City of Ann Arbor",
    "operator_type": "public",
    "opening_hours": "Mo-Su 08:00-22:00",
    "smoking": "no",
    "uniqueType": "park"
  },
  {
    "latitude": 42.2617898,
    "longitude": -83.7382458,
    "name": "Rose White Park",
    "leisure": "park",
    "operator": "City of Ann Arbor",
    "operator_type": "public",
    "uniqueType": "park"
  },
  {
    "latitude": 42.2670458,
    "longitude": -83.7263989,
    "name": "Burns Park",
    "leisure": "park",
    "operator": "City of Ann Arbor",
    "operator_type": "public",
    "uniqueType": "park"
  },
  {
    "latitude": 42.2877068,
    "longitude": -83.704477,
    "name": "Oakridge Nature Area",
    "leisure": "park",
    "uniqueType": "park"
  },
  {
    "latitude": 42.293639,
    "longitude": -83.7349082,
    "name": "Plymouth Parkway Park",
    "leisure": "park",
    "uniqueType": "park"
  },
  {
    "latitude": 42.291242,
    "longitude": -83.7289242,
    "name": "Island Park",
    "leisure": "park",
    "uniqueType": "park"
  },
  {
    "latitude": 42.3045931,
    "longitude": -83.7463368,
    "name": "Bandemer Park",
    "leisure": "park",
    "elevation": "242",
    "note": "Said to be the same as: GNIS 628859 - Wikidata Q49504215",
    "uniqueType": "park"
  },
  {
    "latitude": 42.2871562,
    "longitude": -83.7327082,
    "name": "Fuller Park",
    "leisure": "park",
    "uniqueType": "park"
  },
  {
    "latitude": 42.287318,
    "longitude": -83.734048,
    "name": "Riverside Park",
    "leisure": "park",
    "uniqueType": "park"
  },
  {
    "latitude": 42.275354,
    "longitude": -83.7881873,
    "name": "Burr Oak Park",
    "leisure": "park",
    "uniqueType": "park"
  },
  {
    "latitude": 41.8277787,
    "longitude": -86.2574868,
    "name": "Lower Launch",
    "leisure": "park",
    "uniqueType": "park"
  },
  {
    "latitude": 42.8305306,
    "longitude": -85.5766234,
    "name": "Dutton Shadyside Park",
    "leisure": "park",
    "uniqueType": "park"
  },
  {
    "latitude": 42.3256539,
    "longitude": -83.2109347,
    "leisure": "park",
    "uniqueType": "park"
  },
  {
    "latitude": 42.9195316,
    "longitude": -85.4953919,
    "name": "Cascade Burton Park",
    "address_city": "Grand Rapids",
    "address_zipcode": "49546",
    "address_state": "MI",
    "address_number": "6805",
    "address_street": "Burton Street Southeast",
    "leisure": "park",
    "uniqueType": "park"
  },
  {
    "latitude": 42.6813708,
    "longitude": -86.1939022,
    "name": "Saugatuck Dunes State Park",
    "leisure": "park",
    "wikipedia": "en:Saugatuck Dunes State Park",
    "elevation": "203",
    "uniqueType": "park"
  },
  {
    "latitude": 42.1620621,
    "longitude": -83.4046772,
    "name": "Lower Huron Metropark",
    "leisure": "park",
    "elevation": "197",
    "uniqueType": "park"
  },
  {
    "latitude": 45.0615945,
    "longitude": -83.4568624,
    "name": "Washington Avenue Park",
    "address_city": "Alpena",
    "address_zipcode": "49707",
    "address_state": "MI",
    "address_number": "1044",
    "address_street": "West Washington Avenue",
    "leisure": "park",
    "website": "https://www.alpena.mi.us/residents/city_parks/washington_avenue_park.php",
    "operator": "City of Alpena",
    "operator_type": "government",
    "uniqueType": "park"
  },
  {
    "latitude": 43.4723826,
    "longitude": -83.9613691,
    "name": "William H. Haithco Recreation Area",
    "leisure": "park",
    "uniqueType": "park"
  },
  {
    "latitude": 43.1049012,
    "longitude": -82.4865456,
    "name": "Lakeport State Park",
    "address_city": "Lakeport",
    "address_zipcode": "48059",
    "address_state": "MI",
    "address_number": "7605",
    "address_street": "Lakeshore Road",
    "leisure": "park",
    "operator": "MI Department of Natural Resources",
    "wikipedia": "en:Lakeport State Park",
    "uniqueType": "park"
  },
  {
    "latitude": 42.3619414,
    "longitude": -83.0634592,
    "name": "CCS Business Green",
    "leisure": "park",
    "uniqueType": "park"
  },
  {
    "latitude": 41.8407062,
    "longitude": -86.259248,
    "name": "Plym Park",
    "leisure": "park",
    "elevation": "197",
    "uniqueType": "park"
  },
  {
    "latitude": 42.4105183,
    "longitude": -82.9181762,
    "name": "Balduck Memorial Park",
    "leisure": "park",
    "operator": "Detroit Parks & Recreation Department",
    "elevation": "178",
    "uniqueType": "park"
  },
  {
    "latitude": 42.3576439,
    "longitude": -83.0717876,
    "name": "Keast Commons",
    "leisure": "park",
    "uniqueType": "park"
  },
  {
    "latitude": 42.3581701,
    "longitude": -83.0682043,
    "name": "WSU East Campus Green",
    "leisure": "park",
    "uniqueType": "park"
  },
  {
    "latitude": 42.3138216,
    "longitude": -83.0793844,
    "name": "Riverside Park",
    "leisure": "park",
    "operator": "City of Detroit",
    "operator_type": "public",
    "uniqueType": "park"
  },
  {
    "latitude": 44.635668,
    "longitude": -86.2361832,
    "name": "Tank Hill Park",
    "leisure": "park",
    "uniqueType": "park"
  },
  {
    "latitude": 42.3188418,
    "longitude": -83.2143894,
    "name": "Arjay Miller Arboretum",
    "leisure": "park",
    "uniqueType": "park"
  },
  {
    "latitude": 43.4702932,
    "longitude": -83.958823,
    "leisure": "park",
    "uniqueType": "park"
  },
  {
    "latitude": 46.574066,
    "longitude": -87.3927388,
    "name": "Clark Lambros' Beach Park",
    "address_city": "Marquette",
    "address_zipcode": "49855",
    "address_state": "MI",
    "address_number": "2401",
    "address_street": "Lakeshore Boulevard",
    "leisure": "park",
    "uniqueType": "park"
  },
  {
    "latitude": 46.5765247,
    "longitude": -87.393106,
    "name": "LaBonte Park",
    "address_city": "Marquette",
    "address_zipcode": "49855",
    "address_state": "MI",
    "address_number": "2675",
    "address_street": "Lakeshore Boulevard",
    "leisure": "park",
    "uniqueType": "park"
  },
  {
    "latitude": 42.8644604,
    "longitude": -83.4249294,
    "name": "Ortonville State Recreation Area",
    "leisure": "park",
    "protect_class": "6",
    "protected": "perpetuity",
    "protection_title": "State Park",
    "ownership": "state",
    "wikipedia": "en:Ortonville Recreation Area",
    "elevation": "314",
    "uniqueType": "park"
  },
  {
    "latitude": 42.1353863,
    "longitude": -83.2420604,
    "name": "Civic Center Park",
    "leisure": "park",
    "uniqueType": "park"
  },
  {
    "latitude": 45.3806819,
    "longitude": -84.9464743,
    "name": "Downtown Greenway",
    "leisure": "park",
    "uniqueType": "park"
  },
  {
    "latitude": 42.5911835,
    "longitude": -82.976556,
    "name": "Washington Square Park",
    "leisure": "park",
    "uniqueType": "park"
  },
  {
    "latitude": 45.1294982,
    "longitude": -85.6130622,
    "name": "Bay Front Park",
    "leisure": "park",
    "uniqueType": "park"
  },
  {
    "latitude": 42.1831713,
    "longitude": -83.7739253,
    "name": "Linden Square Gardens",
    "leisure": "park",
    "uniqueType": "park"
  },
  {
    "latitude": 42.3310945,
    "longitude": -83.0616295,
    "name": "United Irish Societies Plaza",
    "leisure": "park",
    "website": "http://www.detroitirish.org/uis/plaza/",
    "uniqueType": "park"
  },
  {
    "latitude": 43.135019,
    "longitude": -86.2805007,
    "name": "P.J. Hoffmaster State Park",
    "address_city": "Muskegon",
    "address_zipcode": "49441",
    "address_state": "MI",
    "address_number": "6585",
    "address_street": "Lake Harbor Road",
    "leisure": "park",
    "wikipedia": "en:Hoffmaster State Park",
    "elevation": "207",
    "uniqueType": "park"
  },
  {
    "latitude": 42.7755663,
    "longitude": -86.2062496,
    "name": "Holland State Park",
    "address_city": "Holland",
    "address_zipcode": "49424",
    "address_state": "MI",
    "address_number": "2215",
    "address_street": "Ottawa Beach Road",
    "leisure": "park",
    "website": "https://www.michigandnr.com/parksandtrails/details.aspx?id=458&type=SPRK",
    "wikipedia": "en:Holland State Park",
    "elevation": "185",
    "uniqueType": "park"
  },
  {
    "latitude": 42.2338119,
    "longitude": -85.8837428,
    "name": "Sunset Park",
    "leisure": "park",
    "opening_hours": "Mo-Su 07:00-22:00",
    "uniqueType": "park"
  },
  {
    "latitude": 42.6693598,
    "longitude": -83.0376656,
    "name": "Ford Field Central Park",
    "leisure": "park",
    "uniqueType": "park"
  },
  {
    "latitude": 42.6667982,
    "longitude": -84.5763325,
    "name": "Georgetown Park",
    "address_number": "6200",
    "address_street": "Haag Road",
    "leisure": "park",
    "operator": "City of Lansing",
    "operator_type": "public",
    "opening_hours": "dawn-dusk",
    "uniqueType": "park"
  },
  {
    "latitude": 42.4249656,
    "longitude": -83.0678326,
    "name": "Conant-Minnesota Park",
    "address_city": "Detroit",
    "address_zipcode": "48212",
    "address_state": "MI",
    "address_number": "17840",
    "address_street": "Conant Street",
    "leisure": "park",
    "uniqueType": "park"
  },
  {
    "latitude": 42.2902443,
    "longitude": -83.7411124,
    "name": "Argo Nature Area",
    "leisure": "park",
    "uniqueType": "park"
  },
  {
    "latitude": 42.7442068,
    "longitude": -83.2780055,
    "name": "Bald Mountain State Recreation Area",
    "address_city": "Orion Township",
    "address_zipcode": "48360",
    "address_state": "MI",
    "address_number": "3361",
    "address_street": "South Lapeer Road",
    "leisure": "park",
    "protect_class": "6",
    "protected": "perpetuity",
    "protection_title": "State Park",
    "ownership": "state",
    "wikipedia": "en:Bald Mountain Recreation Area",
    "elevation": "306",
    "uniqueType": "park"
  },
  {
    "latitude": 42.3803231,
    "longitude": -83.0093353,
    "name": "Latham Playground",
    "address_city": "Detroit",
    "address_zipcode": "48213",
    "address_state": "MI",
    "address_number": "5082",
    "address_street": "Seneca Street",
    "leisure": "park",
    "uniqueType": "park"
  },
  {
    "latitude": 42.377495,
    "longitude": -83.0085537,
    "name": "Pingree Park",
    "leisure": "park",
    "uniqueType": "park"
  },
  {
    "latitude": 42.3429632,
    "longitude": -83.0509266,
    "name": "Brush Park",
    "address_city": "Detroit",
    "address_zipcode": "48201",
    "address_state": "MI",
    "address_street": "Adelaide Street",
    "leisure": "park",
    "website": "https://detroitmi.gov/departments/planning-and-development-department/neighborhood-plans/central-design-region/brush-park",
    "operator": "City of Detroit",
    "operator_type": "public",
    "uniqueType": "park"
  },
  {
    "latitude": 42.2371389,
    "longitude": -83.5550723,
    "leisure": "park",
    "uniqueType": "park"
  },
  {
    "latitude": 42.5801032,
    "longitude": -84.4430155,
    "name": "Courthouse Lawn",
    "address_city": "Mason",
    "address_zipcode": "48854",
    "address_state": "MI",
    "address_number": "315",
    "address_street": "South Jefferson Street",
    "leisure": "park",
    "uniqueType": "park"
  },
  {
    "latitude": 42.7340936,
    "longitude": -84.5579669,
    "name": "Capitol Walkway Park",
    "leisure": "park",
    "uniqueType": "park"
  },
  {
    "latitude": 42.3935862,
    "longitude": -82.9689011,
    "name": "Chandler Park",
    "leisure": "park",
    "uniqueType": "park"
  },
  {
    "latitude": 42.1670312,
    "longitude": -83.7904032,
    "name": "North Hospital Gardens",
    "leisure": "park",
    "uniqueType": "park"
  },
  {
    "latitude": 42.4772874,
    "longitude": -83.1923503,
    "name": "Charlotte M. Rothstein Park",
    "leisure": "park",
    "uniqueType": "park"
  },
  {
    "latitude": 42.1861257,
    "longitude": -83.778734,
    "name": "Sycamore Commons",
    "leisure": "park",
    "uniqueType": "park"
  },
  {
    "latitude": 43.4167551,
    "longitude": -84.2196387,
    "name": "Richland Township Commnity Park",
    "address_city": "Hemlock",
    "address_zipcode": "48626",
    "address_state": "MI",
    "address_number": "398",
    "address_street": "Colorado Ridge",
    "leisure": "park",
    "uniqueType": "park"
  },
  {
    "latitude": 41.8202857,
    "longitude": -84.2678658,
    "name": "Lake Hudson State Recreation Area",
    "address_city": "Clayton",
    "address_zipcode": "49235",
    "address_state": "MI",
    "address_number": "5505",
    "address_street": "Morey Highway",
    "leisure": "park",
    "protect_class": "6",
    "wikipedia": "en:Lake Hudson State Recreation Area",
    "elevation": "259",
    "uniqueType": "park"
  },
  {
    "latitude": 42.5714174,
    "longitude": -82.810168,
    "name": "Lake Saint Clair Metropark",
    "leisure": "park",
    "operator": "Huron-Clinton Metropolitan Authority",
    "wikipedia": "en:Lake St. Clair Metropark",
    "elevation": "177",
    "uniqueType": "park"
  },
  {
    "latitude": 42.3371467,
    "longitude": -83.0503004,
    "name": "Grand Circus Park",
    "leisure": "park",
    "wikipedia": "en:Grand Circus Park Historic District",
    "elevation": "183",
    "uniqueType": "park"
  },
  {
    "latitude": 42.7394856,
    "longitude": -84.5785389,
    "name": "Osborn Park",
    "address_number": "2006",
    "address_street": "Osborn Road",
    "leisure": "park",
    "website": "https://www.lansingmi.gov/Facilities/Facility/Details/Osborn-Park-84",
    "operator": "City of Lansing",
    "operator_type": "public",
    "opening_hours": "dawn-dusk",
    "elevation": "262",
    "uniqueType": "park"
  },
  {
    "latitude": 42.2836727,
    "longitude": -83.7267687,
    "name": "Nichols Arboretum",
    "leisure": "park",
    "operator": "University of Michigan",
    "wikipedia": "en:Nichols Arboretum",
    "opening_hours": "sunrise-sunset",
    "elevation": "244",
    "uniqueType": "park"
  },
  {
    "latitude": 42.416937,
    "longitude": -83.4371232,
    "name": "Ward Woods Trails",
    "leisure": "park",
    "uniqueType": "park"
  },
  {
    "latitude": 45.3760959,
    "longitude": -84.9640622,
    "name": "Bayfront Park West",
    "leisure": "park",
    "uniqueType": "park"
  },
  {
    "latitude": 41.9995979,
    "longitude": -83.9590538,
    "name": "Tecumseh Park",
    "leisure": "park",
    "operator": "City of Tecumseh",
    "operator_type": "public",
    "elevation": "241",
    "uniqueType": "park"
  },
  {
    "latitude": 44.9755804,
    "longitude": -85.1888995,
    "name": "Craven Park",
    "leisure": "park",
    "elevation": "193",
    "uniqueType": "park"
  },
  {
    "latitude": 46.4867774,
    "longitude": -84.3022585,
    "name": "Aune-Osborn Park",
    "leisure": "park",
    "uniqueType": "park"
  },
  {
    "latitude": 45.8412653,
    "longitude": -87.0162709,
    "name": "Van Cleve Park",
    "leisure": "park",
    "elevation": "178",
    "uniqueType": "park"
  },
  {
    "latitude": 42.0506072,
    "longitude": -84.0311998,
    "name": "Taylor Roadside Park",
    "leisure": "park",
    "uniqueType": "park"
  },
  {
    "latitude": 43.4532994,
    "longitude": -85.7277923,
    "name": "Coolbough Natural Area",
    "leisure": "park",
    "operator": "Coolbough Natural Area",
    "opening_hours": "sunrise-sunset",
    "uniqueType": "park"
  },
  {
    "latitude": 42.8225447,
    "longitude": -86.1977471,
    "name": "Riley Trails Park",
    "address_city": "Holland",
    "address_zipcode": "49424",
    "address_state": "MI",
    "address_number": "16300",
    "address_street": "Riley St",
    "leisure": "park",
    "website": "http://www.miottawa.org/Parks/riley.htm",
    "operator": "Ottawa County Parks & Recreation Commission",
    "opening_hours": "07:00-20:00",
    "uniqueType": "park"
  },
  {
    "latitude": 42.3293175,
    "longitude": -83.0765446,
    "name": "Roosevelt Park",
    "address_city": "Detroit",
    "address_zipcode": "48216",
    "address_state": "MI",
    "address_number": "2231",
    "address_street": "Michigan Avenue",
    "leisure": "park",
    "uniqueType": "park"
  },
  {
    "latitude": 42.3575052,
    "longitude": -83.2470636,
    "name": "River Rouge Park",
    "leisure": "park",
    "operator": "City of Detroit",
    "operator_type": "government",
    "elevation": "180",
    "uniqueType": "park"
  },
  {
    "latitude": 42.3717995,
    "longitude": -83.2606838,
    "leisure": "park",
    "uniqueType": "park"
  },
  {
    "latitude": 42.3445501,
    "longitude": -83.0221153,
    "name": "Campau Park",
    "leisure": "park",
    "elevation": "188",
    "uniqueType": "park"
  },
  {
    "latitude": 42.2446103,
    "longitude": -85.5765553,
    "name": "Portage Creek Bicentennial Park",
    "leisure": "park",
    "website": "https://www.portagemi.gov/facilities/facility/details/portagecreekbicentennialpark-19",
    "operator": "City of Portage Parks and Recreation",
    "description": "Portage Creek Bicentennial Park has three entrances, the North Trailhead, Milham Avenue, and Celery Flats. The park has a trail that spans its length and is part of the network of trails connecting the city parks in Portage.",
    "uniqueType": "park"
  },
  {
    "latitude": 42.4092261,
    "longitude": -83.9113283,
    "name": "Hudson Mills Metropolitan Park",
    "leisure": "park",
    "elevation": "256",
    "uniqueType": "park"
  },
  {
    "latitude": 42.1507093,
    "longitude": -83.2080752,
    "name": "North McLouth Park",
    "leisure": "park",
    "website": "https://www.trentonmi.org/853/City-Parks",
    "operator": "City of Trenton",
    "uniqueType": "park"
  },
  {
    "latitude": 43.1120154,
    "longitude": -83.5087253,
    "name": "Holloway Reservoir Regional Park",
    "leisure": "park",
    "operator": "Genesee County",
    "uniqueType": "park"
  },
  {
    "latitude": 43.6746418,
    "longitude": -83.915113,
    "name": "Bay City State Park",
    "address_city": "Bay City",
    "address_zipcode": "48706",
    "address_state": "MI",
    "address_number": "3582",
    "address_street": "State Park Drive",
    "leisure": "park",
    "phone": "+1-989-684-3020",
    "website": "https://www2.dnr.state.mi.us/parksandtrails/details.aspx?id=437&type=SPRK",
    "operator": "Michigan Department of Natural Resources",
    "operator_type": "public",
    "uniqueType": "park"
  },
  {
    "latitude": 41.8879177,
    "longitude": -83.6757472,
    "name": "Petersburg State Game Area",
    "leisure": "park",
    "elevation": "207",
    "uniqueType": "park"
  },
  {
    "latitude": 42.1667696,
    "longitude": -83.2941393,
    "name": "Brownstown Prairie State Wildlife Area",
    "leisure": "park",
    "uniqueType": "park"
  },
  {
    "latitude": 41.9085047,
    "longitude": -84.0274976,
    "name": "Island Park",
    "leisure": "park",
    "elevation": "223",
    "uniqueType": "park"
  },
  {
    "latitude": 42.3617879,
    "longitude": -83.0827914,
    "name": "Lincoln Street Art Park",
    "address_city": "Detroit",
    "address_zipcode": "48208",
    "address_state": "MI",
    "address_number": "5926",
    "address_street": "Lincoln Street",
    "leisure": "park",
    "uniqueType": "park"
  },
  {
    "latitude": 42.7567202,
    "longitude": -84.7631063,
    "name": "Fitzergald Park",
    "address_city": "Grand Ledge",
    "address_zipcode": "48837",
    "address_state": "MI",
    "address_number": "133",
    "address_street": "Fitzgerald Park Drive",
    "leisure": "park",
    "website": "https://www.eatoncounty.org/facilities/facility/details/Fitzgerald-Park-4",
    "operator": "Eaton County Parks Department",
    "opening_hours": "dawn-dusk",
    "note": "Fitzgerald Park is owned by the City of Grand Ledge and leased to Eaton County for operations.",
    "uniqueType": "park"
  },
  {
    "latitude": 42.7583909,
    "longitude": -84.7652583,
    "name": "Future Ball Fields",
    "address_city": "Grand Ledge",
    "address_zipcode": "48837",
    "address_state": "MI",
    "address_street": "Lawson Road",
    "leisure": "park",
    "operator": "City of Grand Ledge",
    "opening_hours": "dawn-dusk",
    "description": "Future Ball Fields",
    "uniqueType": "park"
  },
  {
    "latitude": 44.6788243,
    "longitude": -86.1524308,
    "leisure": "park",
    "operator": "Crystal Highlands Owners Association",
    "uniqueType": "park"
  },
  {
    "latitude": 42.4297944,
    "longitude": -83.0457778,
    "name": "Syracuse-Hildale Playground",
    "leisure": "park",
    "uniqueType": "park"
  },
  {
    "latitude": 43.4510339,
    "longitude": -83.3414893,
    "name": "Tuscola State Game Area",
    "leisure": "park",
    "operator": "Michigan DNR - Wildlife Division",
    "protect_class": "6",
    "elevation": "213",
    "uniqueType": "park"
  },
  {
    "latitude": 44.6260478,
    "longitude": -85.7674937,
    "name": "Interlochen State Park",
    "address_city": "Interlochen",
    "address_zipcode": "49643",
    "address_state": "MI",
    "address_number": "4167",
    "address_street": "J. Maddy Parkway",
    "leisure": "park",
    "operator": "Michigan Department of Natural Resources",
    "operator_type": "public",
    "ownership": "state",
    "wikipedia": "en:Interlochen State Park",
    "elevation": "260",
    "uniqueType": "park"
  },
  {
    "latitude": 45.7475806,
    "longitude": -84.8151779,
    "name": "Cecil Bay Park",
    "leisure": "park",
    "website": "https://www.emmetcounty.org/parks-recreation/cecil-bay-park/",
    "uniqueType": "park"
  },
  {
    "latitude": 42.7540082,
    "longitude": -83.5474339,
    "name": "Shiawassee Basin Preserve",
    "leisure": "park",
    "website": "https://www.springfield-twp.us/departments/parks_and_recreation/parks_and_facilities/index.php",
    "operator": "Springfield Township",
    "uniqueType": "park"
  },
  {
    "latitude": 44.7466369,
    "longitude": -85.5473408,
    "name": "Keith J. Charters Traverse City State Park",
    "address_city": "Traverse City",
    "address_zipcode": "49686",
    "address_state": "MI",
    "address_number": "1132",
    "address_street": "US-31 North",
    "leisure": "park",
    "website": "https://www2.dnr.state.mi.us/parksandtrails/Details.aspx?type=SPRK&id=501",
    "wikipedia": "en:Traverse City State Park",
    "uniqueType": "park"
  },
  {
    "latitude": 42.8779372,
    "longitude": -86.0639951,
    "name": "Olive Township State Game Area",
    "leisure": "park",
    "operator": "Michigan Department of Natural Resources",
    "ownership": "state",
    "uniqueType": "park"
  },
  {
    "latitude": 44.606737,
    "longitude": -85.7610996,
    "name": "Green Lake Township Memorial Park",
    "leisure": "park",
    "uniqueType": "park"
  },
  {
    "latitude": 42.6468282,
    "longitude": -83.3905086,
    "name": "Crescent Lake Access",
    "leisure": "park",
    "uniqueType": "park"
  },
  {
    "latitude": 42.6054437,
    "longitude": -83.3376277,
    "name": "Clinton River Trail",
    "leisure": "park",
    "uniqueType": "park"
  },
  {
    "latitude": 44.6258797,
    "longitude": -86.1516028,
    "name": "Crystal Lake Township Park",
    "leisure": "park",
    "operator": "Crystal Lake Township",
    "uniqueType": "park"
  },
  {
    "latitude": 42.6833366,
    "longitude": -83.315431,
    "name": "City of Lake Angelus Park D",
    "address_city": "Lake Angelus",
    "address_zipcode": "48326",
    "address_state": "MI",
    "address_number": "501",
    "address_street": "Gallogly Road",
    "leisure": "park",
    "note": "This is a Lake Angelus park despite being in Pontiac.",
    "uniqueType": "park"
  },
  {
    "latitude": 42.6605576,
    "longitude": -83.313621,
    "name": "North Kiwanis Park",
    "leisure": "park",
    "elevation": "286",
    "uniqueType": "park"
  },
  {
    "latitude": 42.6741666,
    "longitude": -83.2809354,
    "name": "North Spur Trail",
    "leisure": "park",
    "uniqueType": "park"
  },
  {
    "latitude": 42.8672244,
    "longitude": -83.1378606,
    "name": "Polly Ann Trail",
    "leisure": "park",
    "uniqueType": "park"
  },
  {
    "latitude": 42.8268715,
    "longitude": -83.2713944,
    "name": "Dayton Street Park",
    "leisure": "park",
    "uniqueType": "park"
  },
  {
    "latitude": 42.8174198,
    "longitude": -83.2483201,
    "name": "Oxford Lake Sub Park",
    "leisure": "park",
    "uniqueType": "park"
  },
  {
    "latitude": 42.8247752,
    "longitude": -83.2588854,
    "name": "Scripter Park",
    "leisure": "park",
    "elevation": "320",
    "uniqueType": "park"
  },
  {
    "latitude": 42.7845939,
    "longitude": -83.3817264,
    "name": "Independence Oaks County Park",
    "address_city": "Clarkston",
    "address_zipcode": "48348",
    "address_state": "MI",
    "address_number": "9501",
    "address_street": "Sashabaw Road",
    "leisure": "park",
    "elevation": "314",
    "uniqueType": "park"
  },
  {
    "latitude": 42.6859293,
    "longitude": -83.6119384,
    "name": "Highland Oaks County Park",
    "address_city": "Highland",
    "address_zipcode": "48356",
    "address_state": "MI",
    "address_number": "6555",
    "address_street": "North Milford Road",
    "leisure": "park",
    "elevation": "306",
    "uniqueType": "park"
  },
  {
    "latitude": 42.4952901,
    "longitude": -83.1885589,
    "name": "Community Park",
    "leisure": "park",
    "elevation": "206",
    "uniqueType": "park"
  },
  {
    "latitude": 42.5067784,
    "longitude": -83.6894961,
    "name": "Island Lake State Recreation Area",
    "address_city": "Brighton",
    "address_zipcode": "48116",
    "address_state": "MI",
    "address_number": "12950",
    "address_street": "East Grand River",
    "leisure": "park",
    "phone": "+1-810-229-7067",
    "protect_class": "5",
    "wikipedia": "en:Island Lake Recreation Area",
    "elevation": "273",
    "note": "Boundary is approximate based on rec area map and imagery.",
    "uniqueType": "park"
  },
  {
    "latitude": 42.5932271,
    "longitude": -83.6166993,
    "name": "Hubbell Pond Park",
    "leisure": "park",
    "elevation": "283",
    "note": "Included Janowski fields, library and YMCA as part of Hubbell Park. A portion of the property is leased from the Metroparks.",
    "uniqueType": "park"
  },
  {
    "latitude": 42.5840571,
    "longitude": -83.4805683,
    "name": "Dodge Park #5",
    "leisure": "park",
    "uniqueType": "park"
  },
  {
    "latitude": 45.4155078,
    "longitude": -87.820689,
    "name": "Shakey Lakes County Park",
    "leisure": "park",
    "website": "https://www.menomineecounty.com/departments/?department=0bcae89629ee&subdepartment=76254c404220",
    "operator": "Menominee County",
    "elevation": "215",
    "uniqueType": "park"
  },
  {
    "latitude": 42.4501129,
    "longitude": -83.5366166,
    "name": "ITC Trailhead Park",
    "address_city": "Northville",
    "address_zipcode": "48167",
    "address_state": "MI",
    "address_number": "22475",
    "address_street": "Garfield Road",
    "leisure": "park",
    "uniqueType": "park"
  },
  {
    "latitude": 42.607973,
    "longitude": -83.3448266,
    "name": "Fran Leaf Park",
    "leisure": "park",
    "elevation": "283",
    "uniqueType": "park"
  },
  {
    "latitude": 42.5583499,
    "longitude": -83.2107346,
    "name": "Manor Park",
    "leisure": "park",
    "elevation": "238",
    "uniqueType": "park"
  },
  {
    "latitude": 42.5459822,
    "longitude": -83.2246599,
    "name": "Quarton Lake Park",
    "address_city": "Birmingham",
    "address_zipcode": "48009",
    "address_state": "MI",
    "address_number": "400",
    "address_street": "Lakeside Drive",
    "leisure": "park",
    "uniqueType": "park"
  },
  {
    "latitude": 42.5582114,
    "longitude": -83.2263672,
    "name": "Redding Well Site",
    "leisure": "park",
    "uniqueType": "park"
  },
  {
    "latitude": 42.5368963,
    "longitude": -83.1921936,
    "name": "Kenning Park",
    "address_city": "Birmingham",
    "address_zipcode": "48009",
    "address_state": "MI",
    "address_number": "2300",
    "address_street": "East Lincoln Street",
    "leisure": "park",
    "elevation": "224",
    "uniqueType": "park"
  },
  {
    "latitude": 42.5330718,
    "longitude": -83.2244248,
    "name": "South Well Site",
    "leisure": "park",
    "uniqueType": "park"
  },
  {
    "latitude": 42.467162,
    "longitude": -83.409012,
    "name": "Chatham Park",
    "leisure": "park",
    "uniqueType": "park"
  },
  {
    "latitude": 42.5971805,
    "longitude": -83.1840911,
    "name": "Commons of Northfield",
    "leisure": "park",
    "uniqueType": "park"
  },
  {
    "latitude": 42.566641,
    "longitude": -83.1828322,
    "name": "Somerset North Park",
    "leisure": "park",
    "note": "Troy does not list this as a city park. Oakland County lists this as Somerset North Park.",
    "uniqueType": "park"
  },
  {
    "latitude": 42.4719023,
    "longitude": -83.1342173,
    "name": "Gainsboro Park",
    "leisure": "park",
    "website": "http://www.cityofpleasantridge.org/index.php/departments/recreation",
    "uniqueType": "park"
  },
  {
    "latitude": 42.4678525,
    "longitude": -83.1419285,
    "name": "Oakridge Park",
    "leisure": "park",
    "uniqueType": "park"
  },
  {
    "latitude": 42.4719266,
    "longitude": -83.1437881,
    "name": "Woodward Greenbelt Parks",
    "leisure": "park",
    "website": "http://www.cityofpleasantridge.org/index.php/departments/recreation",
    "uniqueType": "park"
  },
  {
    "latitude": 42.5249411,
    "longitude": -83.2049309,
    "name": "Fries Park",
    "leisure": "park",
    "elevation": "225",
    "uniqueType": "park"
  },
  {
    "latitude": 42.6839934,
    "longitude": -83.0307295,
    "name": "Mae Stecker Park",
    "leisure": "park",
    "uniqueType": "park"
  },
  {
    "latitude": 45.6447133,
    "longitude": -85.0427379,
    "name": "Port of Cross Village Park",
    "leisure": "park",
    "elevation": "179",
    "uniqueType": "park"
  },
  {
    "latitude": 43.1682138,
    "longitude": -83.3925585,
    "name": "Holloway Reservoir Regional Park",
    "leisure": "park",
    "operator": "Genesee County",
    "protect_class": "6",
    "uniqueType": "park"
  },
  {
    "latitude": 42.6172237,
    "longitude": -82.9774888,
    "name": "Lakeside Island Park",
    "address_city": "Sterling Heights",
    "address_zipcode": "48313",
    "address_state": "MI",
    "address_number": "14700",
    "address_street": "Lakeside Circle",
    "leisure": "park",
    "website": "https://www.sterlingheights.gov/Facilities/Facility/Details/Lakeside-Island-Park-16",
    "operator": "City of Sterling Heights",
    "operator_type": "government",
    "uniqueType": "park"
  },
  {
    "latitude": 42.5819825,
    "longitude": -82.9943742,
    "name": "Clinton River Park South",
    "leisure": "park",
    "uniqueType": "park"
  },
  {
    "latitude": 42.6141928,
    "longitude": -83.0259849,
    "name": "Clinton River Park North",
    "leisure": "park",
    "operator": "City of Sterling Heights",
    "operator_type": "government",
    "uniqueType": "park"
  },
  {
    "latitude": 43.8005941,
    "longitude": -84.7155172,
    "name": "Herrick Recreation Area",
    "leisure": "park",
    "operator": "Isabella County",
    "elevation": "247",
    "uniqueType": "park"
  },
  {
    "latitude": 44.3377554,
    "longitude": -84.8747543,
    "name": "Ben D. Jeffs River Park",
    "leisure": "park",
    "operator": "Missaukee County",
    "uniqueType": "park"
  },
  {
    "latitude": 42.3139794,
    "longitude": -83.7218127,
    "name": "Foxfire South Park",
    "address_city": "Ann Arbor",
    "address_zipcode": "48105",
    "address_state": "MI",
    "address_number": "2400",
    "address_street": "Dhu Varren Road",
    "leisure": "park",
    "operator": "City of Ann Arbor",
    "operator_type": "government",
    "uniqueType": "park"
  },
  {
    "latitude": 42.1930759,
    "longitude": -86.2573999,
    "name": "Hayes Park",
    "leisure": "park",
    "operator": "City of Watervliet",
    "elevation": "193",
    "uniqueType": "park"
  },
  {
    "latitude": 42.1919596,
    "longitude": -86.2562046,
    "name": "Paw Paw River County Park",
    "leisure": "park",
    "website": "https://berriencounty.org/1301/Paw-Paw-River-County-Park",
    "operator": "Berrien County",
    "uniqueType": "park"
  },
  {
    "latitude": 42.3155982,
    "longitude": -86.1119376,
    "name": "Lions Park",
    "leisure": "park",
    "operator": "City of Bangor",
    "elevation": "199",
    "uniqueType": "park"
  },
  {
    "latitude": 42.509994,
    "longitude": -85.8904479,
    "name": "Littlejohn Lake County Park",
    "leisure": "park",
    "operator": "Allegan County",
    "operator_type": "government",
    "uniqueType": "park"
  },
  {
    "latitude": 46.3043257,
    "longitude": -89.9205547,
    "name": "Chaney Lake Boat Launch",
    "leisure": "park",
    "operator": "Michigan Department of Natural Resources",
    "operator_type": "public",
    "uniqueType": "park"
  },
  {
    "latitude": 43.4499033,
    "longitude": -86.1969418,
    "name": "Blue Lake County Park",
    "address_city": "Holton",
    "address_zipcode": "49425",
    "address_state": "MI",
    "address_number": "10701",
    "address_street": "Nichols Road",
    "leisure": "park",
    "website": "https://muskegoncountyparks.org/blue-lake-park/",
    "operator": "Muskegon County",
    "elevation": "204",
    "uniqueType": "park"
  },
  {
    "latitude": 43.459235,
    "longitude": -86.2069809,
    "name": "Deremo Boat Launch",
    "leisure": "park",
    "website": "https://www.muskegoncountyparks.org/",
    "operator": "Muskegon County",
    "elevation": "203",
    "uniqueType": "park"
  },
  {
    "latitude": 44.6606425,
    "longitude": -84.1264799,
    "name": "M33 Roadside Park",
    "leisure": "park",
    "website": "https://www.mcgi.state.mi.us/MRBIS/BASDetail.aspx?basid=A-68-010",
    "operator": "Michigan Department of Natural Resources",
    "operator_type": "public",
    "ownership": "state",
    "uniqueType": "park"
  },
  {
    "latitude": 42.7749309,
    "longitude": -82.9591448,
    "name": "Wolcott Mill Metropark",
    "leisure": "park",
    "website": "https://metroparks.com/wolcott-metropark/",
    "operator": "Huron-Clinton Metroparks",
    "operator_type": "public",
    "wikipedia": "en:Wolcott Mill Metropark",
    "elevation": "198",
    "uniqueType": "park"
  },
  {
    "latitude": 44.4473309,
    "longitude": -83.4973154,
    "name": "Old Orchard Park",
    "leisure": "park",
    "website": "https://www.oscodatownshipmi.gov/parks___recreation/old_orchard_campground.php",
    "operator": "Oscoda Township",
    "elevation": "198",
    "uniqueType": "park"
  },
  {
    "latitude": 42.9862366,
    "longitude": -85.3220418,
    "name": "Fallasburg Park",
    "leisure": "park",
    "website": "https://kentcountyparks.org/parks-trails/fallasburg-park/",
    "operator": "Kent County",
    "elevation": "210",
    "uniqueType": "park"
  },
  {
    "latitude": 43.2875356,
    "longitude": -85.2582669,
    "name": "McCarthy Park",
    "address_city": "Greenville",
    "address_zipcode": "48838",
    "address_state": "MI",
    "address_number": "592",
    "address_street": "South Greenville Road",
    "leisure": "park",
    "website": "https://www.montcalm.us/284/Parks",
    "operator": "Montcalm County",
    "elevation": "262",
    "uniqueType": "park"
  },
  {
    "latitude": 43.2488638,
    "longitude": -85.3020192,
    "name": "Carl Paepke Flat River Nature Park",
    "leisure": "park",
    "website": "https://www.montcalm.us/284/Parks",
    "operator": "Montcalm County",
    "uniqueType": "park"
  },
  {
    "latitude": 44.982021,
    "longitude": -85.7339849,
    "name": "Provement Pond Recreation Area",
    "leisure": "park",
    "operator": "Township of Leland",
    "uniqueType": "park"
  },
  {
    "latitude": 42.2196323,
    "longitude": -85.1969917,
    "name": "Leroy Township Park",
    "leisure": "park",
    "operator": "Leroy Township",
    "uniqueType": "park"
  },
  {
    "latitude": 42.1470769,
    "longitude": -84.802618,
    "name": "Grist Mill Park",
    "leisure": "park",
    "website": "https://homermichigan.org/parks/",
    "operator": "Village of Homer",
    "uniqueType": "park"
  },
  {
    "latitude": 42.2922381,
    "longitude": -85.1103063,
    "name": "Historic Bridge Park",
    "address_city": "Battle Creek",
    "address_zipcode": "49014",
    "address_state": "MI",
    "address_number": "14930",
    "address_street": "South Wattles Road",
    "leisure": "park",
    "website": "https://www.calhouncountymi.gov/departments/parks/historic_bridge_park.php",
    "operator": "Calhoun County",
    "operator_type": "public",
    "uniqueType": "park"
  },
  {
    "latitude": 42.3677657,
    "longitude": -85.7221444,
    "name": "Alamo Township Park",
    "leisure": "park",
    "website": "http://www.alamotownship.org/parks",
    "operator": "Alamo Township",
    "uniqueType": "park"
  },
  {
    "latitude": 42.209392,
    "longitude": -84.403595,
    "name": "Ella Sharp Park",
    "address_city": "Jackson",
    "address_zipcode": "49203",
    "address_state": "MI",
    "address_number": "3225",
    "address_street": "4th Street",
    "leisure": "park",
    "website": "https://ellasharppark.com/",
    "operator": "City of Jackson",
    "uniqueType": "park"
  },
  {
    "latitude": 41.7692614,
    "longitude": -86.2716045,
    "name": "Madeline Bertrand County Park",
    "leisure": "park",
    "operator": "Berrien County",
    "elevation": "212",
    "uniqueType": "park"
  },
  {
    "latitude": 41.8125671,
    "longitude": -86.2543648,
    "name": "Riverfront Park South",
    "leisure": "park",
    "operator": "City of Niles",
    "uniqueType": "park"
  },
  {
    "latitude": 41.8404992,
    "longitude": -86.3581297,
    "name": "Redbud Riverfront Park",
    "leisure": "park",
    "operator": "City of Buchanan",
    "elevation": "206",
    "uniqueType": "park"
  },
  {
    "latitude": 41.9558294,
    "longitude": -86.3298335,
    "name": "Shamrock Park",
    "leisure": "park",
    "operator": "Village of Berrien Springs",
    "elevation": "188",
    "uniqueType": "park"
  },
  {
    "latitude": 46.9536917,
    "longitude": -88.1507902,
    "name": "Point Abbaye County Park",
    "alt_name": "Point Abbaye Natural Area",
    "leisure": "park",
    "operator": "Baraga County",
    "uniqueType": "park"
  },
  {
    "latitude": 45.0467188,
    "longitude": -85.7197135,
    "name": "John G. Suelzer East Leland Memorial Park",
    "leisure": "park",
    "operator": "Leland Township",
    "operator_type": "public",
    "elevation": "183",
    "uniqueType": "park"
  },
  {
    "latitude": 42.6719984,
    "longitude": -83.0966367,
    "name": "Yates Park",
    "leisure": "park",
    "uniqueType": "park"
  },
  {
    "latitude": 42.6719984,
    "longitude": -83.0966367,
    "name": "Bloomer Park",
    "address_city": "Rochester Hills",
    "address_zipcode": "48307",
    "address_state": "MI",
    "address_number": "345",
    "address_street": "John R Road",
    "leisure": "park",
    "website": "https://www.rochesterhills.org/bloomer",
    "operator": "City of Rochester Hills",
    "start_date": "1924",
    "description": "Was a state park until 1994 when the City of Rochester Hills took over",
    "note": "Approximate way based on existing administrative boundaries and descriptions of the location",
    "uniqueType": "park"
  },
  {
    "latitude": 44.5954103,
    "longitude": -83.8288411,
    "name": "Alcona Park",
    "leisure": "park",
    "website": "https://alconapark.org/",
    "operator": "Consumers Power Company",
    "elevation": "258",
    "uniqueType": "park"
  },
  {
    "latitude": 42.3987706,
    "longitude": -85.2338099,
    "name": "Skeet Gehrman Park",
    "leisure": "park",
    "website": "https://www.bedfordchartertwpmi.gov/",
    "operator": "Bedford Charter Township",
    "uniqueType": "park"
  },
  {
    "latitude": 43.8332254,
    "longitude": -86.2927776,
    "name": "Saint Marys Lake Boating Access Site",
    "leisure": "park",
    "operator": "Michigan Department of Natural Resources",
    "uniqueType": "park"
  },
  {
    "latitude": 46.4259971,
    "longitude": -84.4739859,
    "name": "Soo Strong Trail Linear Park",
    "leisure": "park",
    "operator": "Michigan Department of Natural Resources",
    "operator_type": "public",
    "description": "Linear park encompassing former right of way of the Duluth and South Shore (\"Soo Line\") Railroad acquired by MDNR and operated as a rail trail, the Soo Strong Trail",
    "uniqueType": "park"
  },
  {
    "latitude": 47.3803772,
    "longitude": -88.035534,
    "name": "John Jackson Riverside Park",
    "leisure": "park",
    "website": "https://www.keweenawcountyonline.org/",
    "operator": "Keweenaw County",
    "uniqueType": "park"
  },
  {
    "latitude": 47.4602265,
    "longitude": -88.1504791,
    "name": "Koop-Black Cove Park",
    "leisure": "park",
    "operator": "Eagle Harbor Township",
    "ownership": "state",
    "uniqueType": "park"
  },
  {
    "latitude": 46.3302256,
    "longitude": -87.3679447,
    "name": "Little Trout Lake Park",
    "leisure": "park",
    "website": "https://co.marquette.mi.us/departments/sawyer_services/little_trout_lake.php",
    "operator": "Marquette County",
    "elevation": "335",
    "uniqueType": "park"
  },
  {
    "latitude": 46.2832885,
    "longitude": -87.4361999,
    "name": "Farquar-Metsa Tourist Park",
    "leisure": "park",
    "website": "https://forsythtownship.org/",
    "operator": "Forsyth Township",
    "operator_type": "government",
    "elevation": "343",
    "uniqueType": "park"
  },
  {
    "latitude": 42.8691876,
    "longitude": -84.4507576,
    "name": "Looking Glass River Boating Access Site",
    "leisure": "park",
    "operator": "Michigan Department of Natural Resources",
    "operator_type": "public",
    "uniqueType": "park"
  },
  {
    "latitude": 47.4682729,
    "longitude": -88.0583493,
    "name": "Esrey Park",
    "leisure": "park",
    "operator": "Keweenaw County",
    "uniqueType": "park"
  },
  {
    "latitude": 46.1996549,
    "longitude": -88.4387269,
    "name": "Gibson Lake Park",
    "leisure": "park",
    "operator": "Crystal Falls Township",
    "operator_type": "public",
    "elevation": "445",
    "description": "According to Iron County, this park has camping, a pavilion, change house, playground equipment, and swimming.",
    "uniqueType": "park"
  },
  {
    "latitude": 46.0856857,
    "longitude": -88.9295814,
    "name": "Holmes Park",
    "leisure": "park",
    "operator": "Stambaugh Township",
    "operator_type": "public",
    "fee": "yes",
    "uniqueType": "park"
  },
  {
    "latitude": 46.0991637,
    "longitude": -88.3101488,
    "name": "Runkle Lake Park",
    "leisure": "park",
    "website": "https://runklelakecamping.com/",
    "operator": "City of Crystal Falls",
    "operator_type": "public",
    "elevation": "418",
    "uniqueType": "park"
  },
  {
    "latitude": 45.9808653,
    "longitude": -88.3370376,
    "name": "Stager Lake Park",
    "leisure": "park",
    "operator": "Mastodon Township",
    "operator_type": "public",
    "elevation": "393",
    "uniqueType": "park"
  },
  {
    "latitude": 46.0766683,
    "longitude": -88.1846928,
    "name": "Dawson Lake Park",
    "leisure": "park",
    "operator": "Mansfield Township",
    "operator_type": "public",
    "elevation": "404",
    "uniqueType": "park"
  },
  {
    "latitude": 46.0993229,
    "longitude": -88.6430809,
    "name": "Bachman Park",
    "leisure": "park",
    "operator": "City of Iron River",
    "operator_type": "public",
    "elevation": "454",
    "uniqueType": "park"
  },
  {
    "latitude": 46.0972396,
    "longitude": -88.642994,
    "leisure": "park",
    "operator": "City of Iron River",
    "description": "City-owned land, maintained as a park for now",
    "uniqueType": "park"
  },
  {
    "latitude": 46.0964052,
    "longitude": -88.6479842,
    "name": "Mattioli Park",
    "leisure": "park",
    "operator": "City of Iron River",
    "operator_type": "public",
    "elevation": "450",
    "uniqueType": "park"
  },
  {
    "latitude": 46.0970913,
    "longitude": -88.6460373,
    "name": "Segundo Park",
    "leisure": "park",
    "operator": "City of Iron River",
    "description": "City-owned land, maintained as a park for now",
    "uniqueType": "park"
  },
  {
    "latitude": 46.0965648,
    "longitude": -88.6419716,
    "leisure": "park",
    "operator": "City of Iron River",
    "operator_type": "public",
    "uniqueType": "park"
  },
  {
    "latitude": 46.0969798,
    "longitude": -88.6398865,
    "name": "Nanaimo Park",
    "address_state": "MI",
    "leisure": "park",
    "operator": "City of Iron River",
    "operator_type": "public",
    "elevation": "451",
    "uniqueType": "park"
  },
  {
    "latitude": 46.4770148,
    "longitude": -89.0122193,
    "name": "Trout Creek Township Park",
    "leisure": "park",
    "operator": "Interior Township",
    "operator_type": "public",
    "elevation": "354",
    "uniqueType": "park"
  },
  {
    "latitude": 43.0686477,
    "longitude": -83.6553337,
    "name": "Riverside Park East",
    "leisure": "park",
    "operator": "City of Flint",
    "operator_type": "public",
    "uniqueType": "park"
  },
  {
    "latitude": 42.9997165,
    "longitude": -83.7075384,
    "name": "Kellar Park",
    "leisure": "park",
    "elevation": "227",
    "uniqueType": "park"
  },
  {
    "latitude": 42.988122,
    "longitude": -83.7327008,
    "name": "Swartz Creek Valley Park",
    "leisure": "park",
    "operator": "City of Flint",
    "operator_type": "public",
    "elevation": "222",
    "uniqueType": "park"
  },
  {
    "latitude": 42.0073091,
    "longitude": -83.9537591,
    "name": "Patterson Park",
    "leisure": "park",
    "elevation": "244",
    "uniqueType": "park"
  },
  {
    "latitude": 42.0110969,
    "longitude": -83.9256828,
    "name": "Indian Crossing Trails Park",
    "leisure": "park",
    "operator": "City of Tecumseh",
    "elevation": "231",
    "uniqueType": "park"
  },
  {
    "latitude": 42.013711,
    "longitude": -83.9344073,
    "name": "Standish Dam Park",
    "leisure": "park",
    "elevation": "233",
    "uniqueType": "park"
  },
  {
    "latitude": 41.9644291,
    "longitude": -83.6354028,
    "name": "West County Park",
    "leisure": "park",
    "operator": "Monroe County",
    "operator_type": "public",
    "elevation": "196",
    "uniqueType": "park"
  },
  {
    "latitude": 41.9259572,
    "longitude": -83.432291,
    "name": "Cranbrook Park",
    "leisure": "park",
    "operator": "City of Monroe",
    "operator_type": "public",
    "elevation": "183",
    "description": "Eastern boundary should probably stop at Worrel Park boundary as that's what's shown by the city parcel data, however I extended it further east to the next evidently residential property",
    "uniqueType": "park"
  },
  {
    "latitude": 42.3392116,
    "longitude": -85.1761753,
    "name": "Kolb Park",
    "leisure": "park",
    "operator": "Kellogg Community College;City of Battle Creek",
    "elevation": "254",
    "uniqueType": "park"
  },
  {
    "latitude": 42.2505232,
    "longitude": -85.5503995,
    "name": "Emerald Drive Park",
    "leisure": "park",
    "operator": "City of Kalamazoo",
    "operator_type": "public",
    "elevation": "260",
    "uniqueType": "park"
  },
  {
    "latitude": 41.9671404,
    "longitude": -85.5346051,
    "name": "Covered Bridge Park",
    "leisure": "park",
    "operator": "City of Sturgis",
    "operator_type": "public",
    "elevation": "251",
    "uniqueType": "park"
  },
  {
    "latitude": 41.9711973,
    "longitude": -85.5319532,
    "name": "Pahl Point Park",
    "leisure": "park",
    "operator": "City of Sturgis",
    "operator_type": "public",
    "elevation": "253",
    "uniqueType": "park"
  },
  {
    "latitude": 41.9735222,
    "longitude": -85.5236045,
    "name": "Covered Bridge Farm County Park",
    "leisure": "park",
    "website": "https://www.stjosephcountymi.org/Home/Components/FacilityDirectory/FacilityDirectory/4/97",
    "operator": "St. Joseph County",
    "operator_type": "public",
    "uniqueType": "park"
  },
  {
    "latitude": 42.4670109,
    "longitude": -83.1137023,
    "name": "Martin Road Park",
    "address_city": "Ferndale",
    "address_zipcode": "48220",
    "address_state": "MI",
    "address_number": "1615",
    "address_street": "East Lewiston Avenue",
    "leisure": "park",
    "uniqueType": "park"
  },
  {
    "latitude": 42.8726493,
    "longitude": -84.9019647,
    "name": "Two Rivers Park",
    "leisure": "park",
    "operator": "City of Portland",
    "operator_type": "public",
    "uniqueType": "park"
  },
  {
    "latitude": 42.8633432,
    "longitude": -84.8845774,
    "name": "Rivertrail Linear Park",
    "leisure": "park",
    "operator": "City of Portland",
    "operator_type": "public",
    "uniqueType": "park"
  },
  {
    "latitude": 42.868269,
    "longitude": -84.8914294,
    "name": "Community Lake Park",
    "leisure": "park",
    "operator": "City of Portland",
    "operator_type": "public",
    "uniqueType": "park"
  },
  {
    "latitude": 42.8707934,
    "longitude": -84.9034016,
    "name": "William Toan Park",
    "leisure": "park",
    "operator": "City of Portland",
    "operator_type": "public",
    "uniqueType": "park"
  },
  {
    "latitude": 42.871462,
    "longitude": -84.9057969,
    "name": "Powers Park",
    "leisure": "park",
    "operator": "City of Portland",
    "operator_type": "public",
    "uniqueType": "park"
  },
  {
    "latitude": 42.871462,
    "longitude": -84.9057969,
    "name": "Roadside Park",
    "leisure": "park",
    "operator": "City of Portland",
    "operator_type": "public",
    "uniqueType": "park"
  },
  {
    "latitude": 42.86887,
    "longitude": -84.9074893,
    "name": "Thompson Field",
    "leisure": "park",
    "website": "https://www.portland-michigan.org/258/Thompson-Field",
    "uniqueType": "park"
  },
  {
    "latitude": 42.86887,
    "longitude": -84.9074893,
    "name": "Boy Scout Park",
    "leisure": "park",
    "operator": "City of Portland",
    "operator_type": "public",
    "uniqueType": "park"
  },
  {
    "latitude": 43.8018113,
    "longitude": -85.1587323,
    "name": "Merrill-Gorrel County Park",
    "address_city": "Sears",
    "address_zipcode": "49679",
    "address_state": "MI",
    "address_number": "3275",
    "address_street": "Evergreen Road",
    "leisure": "park",
    "phone": "+1-989-382-7158",
    "website": "https://www.mecostacountyparks.com/merrill-gorrel-campground.html",
    "operator": "Mecosta County",
    "elevation": "320",
    "uniqueType": "park"
  },
  {
    "latitude": 43.9464909,
    "longitude": -85.1485848,
    "name": "Crawford Park",
    "leisure": "park",
    "operator": "Osceola County",
    "operator_type": "public",
    "elevation": "306",
    "uniqueType": "park"
  },
  {
    "latitude": 47.0312872,
    "longitude": -88.5271773,
    "name": "Misslitz Field Baseball Park",
    "leisure": "park",
    "website": "https://chassell.info/parks.htm",
    "operator": "Chassell Township",
    "operator_type": "public",
    "elevation": "194",
    "uniqueType": "park"
  },
  {
    "latitude": 42.2990785,
    "longitude": -85.1294722,
    "name": "Riverside Park",
    "leisure": "park",
    "website": "https://www.calhouncountymi.gov/departments/parks/index.php",
    "operator": "Calhoun County",
    "uniqueType": "park"
  },
  {
    "latitude": 42.2972207,
    "longitude": -85.1678315,
    "name": "Paddlers Grove Park",
    "address_city": "Battle Creek",
    "address_zipcode": "49014",
    "address_state": "MI",
    "address_number": "165",
    "address_street": "South River Road",
    "leisure": "park",
    "operator": "Calhoun County Conservation District",
    "description": "Small Children's playground as well as a place to put kayaks into the river.",
    "uniqueType": "park"
  },
  {
    "latitude": 42.296741,
    "longitude": -85.202037,
    "name": "Goguac Lake Boating Access Site",
    "leisure": "park",
    "operator": "Michigan Department of Natural Resources",
    "uniqueType": "park"
  },
  {
    "latitude": 42.4124549,
    "longitude": -85.2111894,
    "name": "Wabascon Lake Boating Access Site",
    "leisure": "park",
    "website": "https://www.mcgi.state.mi.us/MRBIS/BASDetail.aspx?basid=A-13-012",
    "operator": "Michigan Department of Natural Resources",
    "uniqueType": "park"
  },
  {
    "latitude": 43.0608555,
    "longitude": -83.7048528,
    "name": "Chester and Cynthia Simmons Memorial Parkway",
    "leisure": "park",
    "uniqueType": "park"
  },
  {
    "latitude": 46.575157,
    "longitude": -88.3391818,
    "name": "Tioga Creek Roadside Park",
    "leisure": "park",
    "uniqueType": "park"
  },
  {
    "latitude": 43.4028646,
    "longitude": -85.7584257,
    "name": "Brooks Lake Boating Access Site",
    "leisure": "park",
    "operator": "Michigan Department of Natural Resources",
    "uniqueType": "park"
  },
  {
    "latitude": 43.4124441,
    "longitude": -85.7173925,
    "name": "High Rollway - Thornapple Boating Access Site",
    "leisure": "park",
    "website": "https://www.mcgi.state.mi.us/MRBIS/BASDetail.aspx?basid=A-62-013",
    "operator": "Michigan Department of Natural Resources",
    "operator_type": "public",
    "uniqueType": "park"
  },
  {
    "latitude": 47.1148205,
    "longitude": -88.494863,
    "name": "Sandy Bottom Beach Park",
    "leisure": "park",
    "website": "https://www.osceolatownship.org/sandy-bottom-beach.html",
    "operator": "Osceola Township",
    "operator_type": "public",
    "uniqueType": "park"
  },
  {
    "latitude": 46.5412922,
    "longitude": -88.4975791,
    "name": "Vermilac Lake Boating Access Site",
    "leisure": "park",
    "operator": "Michigan Department of Natural Resources",
    "operator_type": "public",
    "uniqueType": "park"
  },
  {
    "latitude": 43.0353819,
    "longitude": -83.6940166,
    "name": "Dort Park",
    "leisure": "park",
    "operator": "City of Flint",
    "operator_type": "public",
    "opening_hours": "Mo-Su 06:00-22:00",
    "uniqueType": "park"
  },
  {
    "latitude": 42.7580435,
    "longitude": -84.3832915,
    "name": "Lake Lansing Park North",
    "leisure": "park",
    "operator": "Ingham County",
    "operator_type": "public",
    "uniqueType": "park"
  },
  {
    "latitude": 42.7427959,
    "longitude": -84.4951911,
    "name": "Glencairn Park",
    "address_city": "East Lansing",
    "address_zipcode": "48823",
    "address_state": "MI",
    "address_number": "920",
    "address_street": "Northlawn Avenue",
    "leisure": "park",
    "website": "https://cityofeastlansing.com/Facilities/Facility/Details/Glencairn-Park-9",
    "operator": "City of East Lansing",
    "operator_type": "public",
    "uniqueType": "park"
  },
  {
    "latitude": 42.0859357,
    "longitude": -86.2118351,
    "name": "Round Lake Public Access",
    "leisure": "park",
    "operator": "Michigan Department of Natural Resources",
    "operator_type": "public",
    "uniqueType": "park"
  },
  {
    "latitude": 42.3792567,
    "longitude": -85.9621851,
    "name": "Shady Brook Park",
    "leisure": "park",
    "operator": "Village of Bloomingdale",
    "operator_type": "public",
    "uniqueType": "park"
  },
  {
    "latitude": 42.3345089,
    "longitude": -86.2942192,
    "name": "Van Buren State Park",
    "address_city": "South Haven",
    "address_zipcode": "49090",
    "address_state": "MI",
    "address_number": "23960",
    "address_street": "Ruggles Road",
    "leisure": "park",
    "wikipedia": "en:Van Buren State Park (Michigan)",
    "uniqueType": "park"
  },
  {
    "latitude": 41.8907614,
    "longitude": -85.9878599,
    "name": "Diamond Lake Public Access",
    "leisure": "park",
    "operator": "Michigan Department of Natural Resources",
    "operator_type": "public",
    "uniqueType": "park"
  },
  {
    "latitude": 41.9115242,
    "longitude": -86.017,
    "leisure": "park",
    "operator": "Village of Cassopolis",
    "uniqueType": "park"
  },
  {
    "latitude": 41.9077176,
    "longitude": -86.0126281,
    "name": "Stone Lake Beach",
    "leisure": "park",
    "operator": "Village of Cassopolis",
    "operator_type": "public",
    "uniqueType": "park"
  },
  {
    "latitude": 43.1024386,
    "longitude": -84.6935334,
    "name": "Maple Rapids Village Park and Community Center",
    "leisure": "park",
    "operator": "Village of Maple Rapids",
    "operator_type": "public",
    "uniqueType": "park"
  },
  {
    "latitude": 43.1043503,
    "longitude": -84.6972669,
    "name": "Maple Rapids Memorial Ball Fields",
    "leisure": "park",
    "operator": "Village of Maple Rapids",
    "operator_type": "public",
    "uniqueType": "park"
  },
  {
    "latitude": 43.0959004,
    "longitude": -84.3999214,
    "name": "Elsie Park",
    "leisure": "park",
    "website": "https://elsie.org/departments/parks-and-recreation/",
    "operator": "Village of Elsie",
    "operator_type": "public",
    "uniqueType": "park"
  },
  {
    "latitude": 43.0887227,
    "longitude": -84.4069878,
    "name": "Duplain Township Park",
    "leisure": "park",
    "operator": "Duplain Township",
    "operator_type": "public",
    "uniqueType": "park"
  },
  {
    "latitude": 43.0557602,
    "longitude": -84.4455975,
    "name": "Latoff Landing",
    "leisure": "park",
    "operator": "Clinton County",
    "operator_type": "public",
    "uniqueType": "park"
  },
  {
    "latitude": 42.894177,
    "longitude": -84.4250668,
    "name": "Victor Township Park",
    "leisure": "park",
    "operator": "Victor Township",
    "operator_type": "public",
    "uniqueType": "park"
  },
  {
    "latitude": 44.2636904,
    "longitude": -85.2525802,
    "name": "Clam River Park",
    "leisure": "park",
    "operator": "Lake Township",
    "operator_type": "public",
    "uniqueType": "park"
  },
  {
    "latitude": 42.1028601,
    "longitude": -86.4663585,
    "name": "Charles Yarbrough Riverview Drive Park",
    "leisure": "park",
    "operator": "City of Benton Harbor",
    "elevation": "177",
    "uniqueType": "park"
  },
  {
    "latitude": 42.1053576,
    "longitude": -86.4647208,
    "name": "Benton Harbor Boat Launch",
    "leisure": "park",
    "operator": "Michigan Department of Natural Resources",
    "operator_type": "public",
    "uniqueType": "park"
  },
  {
    "latitude": 43.5908394,
    "longitude": -84.2459321,
    "leisure": "park",
    "uniqueType": "park"
  },
  {
    "latitude": 43.3860616,
    "longitude": -84.6755214,
    "name": "Scottish Heights Trailhead",
    "leisure": "park",
    "operator": "City of Alma",
    "operator_type": "public",
    "uniqueType": "park"
  },
  {
    "latitude": 43.2376772,
    "longitude": -84.5318772,
    "name": "Reed Park",
    "leisure": "park",
    "operator": "Gratiot County",
    "operator_type": "public",
    "uniqueType": "park"
  },
  {
    "latitude": 42.1874889,
    "longitude": -85.9515735,
    "name": "Three Mile Lake Public Access",
    "leisure": "park",
    "website": "https://www.mcgi.state.mi.us/MRBIS/BASDetail.aspx?basid=A-80-008",
    "operator": "Michigan Department of Natural Resources",
    "operator_type": "public",
    "uniqueType": "park"
  },
  {
    "latitude": 42.1138734,
    "longitude": -86.0049167,
    "name": "Lake of the Woods Public Access",
    "leisure": "park",
    "website": "https://www.mcgi.state.mi.us/MRBIS/BASDetail.aspx?basid=A-80-017",
    "operator": "Michigan Department of Natural Resources",
    "operator_type": "public",
    "uniqueType": "park"
  },
  {
    "latitude": 42.2237933,
    "longitude": -86.0513925,
    "name": "North River Park",
    "leisure": "park",
    "operator": "Village of Lawrence",
    "operator_type": "public",
    "uniqueType": "park"
  },
  {
    "latitude": 43.852318,
    "longitude": -83.3757742,
    "name": "Bay Port Boating Access Site",
    "leisure": "park",
    "website": "https://www.mcgi.state.mi.us/MRBIS/BASDetail.aspx?basid=A-32-007",
    "operator": "Michigan Department of Natural Resources",
    "operator_type": "public",
    "uniqueType": "park"
  },
  {
    "latitude": 45.5010244,
    "longitude": -84.5002687,
    "name": "Jewell Road Boating Access Site",
    "leisure": "park",
    "operator": "Michigan Department of Natural Resources",
    "operator_type": "public",
    "uniqueType": "park"
  },
  {
    "latitude": 45.5009881,
    "longitude": -84.5029837,
    "name": "Boy Scout Camp Picnic Area",
    "leisure": "park",
    "operator": "Mullet Township",
    "operator_type": "public",
    "uniqueType": "park"
  },
  {
    "latitude": 43.3903486,
    "longitude": -85.8283632,
    "name": "Anderson's Flats Boating Access Site",
    "leisure": "park",
    "website": "https://www.mcgi.state.mi.us/MRBIS/BASDetail.aspx?basid=A-62-014",
    "operator": "Michigan Department of Natural Resources",
    "operator_type": "public",
    "uniqueType": "park"
  },
  {
    "latitude": 43.4236103,
    "longitude": -85.7911527,
    "name": "EH Henning County Park",
    "leisure": "park",
    "operator": "Newaygo County",
    "elevation": "216",
    "uniqueType": "park"
  },
  {
    "latitude": 43.4230811,
    "longitude": -85.7980076,
    "name": "Shaw Park",
    "leisure": "park",
    "website": "https://www.newaygo.gov/parks-recreation.php",
    "operator": "City of Newagyo",
    "operator_type": "public",
    "uniqueType": "park"
  },
  {
    "latitude": 43.0607756,
    "longitude": -85.5861949,
    "name": "Grand Rogue Township Park",
    "leisure": "park",
    "website": "https://www.plainfieldmi.org/information_about/parks_and_recreation/township_parks/grand_rogue_park.php",
    "operator": "Plainfield Charter Township",
    "operator_type": "public",
    "uniqueType": "park"
  },
  {
    "latitude": 42.5627951,
    "longitude": -82.8427238,
    "name": "Clinton River Cut-Off Boating Access Site",
    "leisure": "park",
    "website": "https://www.mcgi.state.mi.us/MRBIS/BASDetail.aspx?basid=A-50-006",
    "operator": "Michigan Department of Natural Resources",
    "operator_type": "public",
    "uniqueType": "park"
  },
  {
    "latitude": 46.4892176,
    "longitude": -87.328768,
    "name": "M-28 Bridge Chocolay River Access",
    "leisure": "park",
    "operator": "Michigan Department of Natural Resources",
    "operator_type": "public",
    "uniqueType": "park"
  },
  {
    "latitude": 46.440493,
    "longitude": -87.8227696,
    "name": "Greenwood Reservoir Public Access",
    "leisure": "park",
    "operator": "Michigan Department of Natural Resources",
    "operator_type": "public",
    "uniqueType": "park"
  },
  {
    "latitude": 41.8371119,
    "longitude": -85.4176098,
    "name": "Omena Lake Public Access",
    "leisure": "park",
    "operator": "Michigan Department of Natural Resources",
    "operator_type": "public",
    "uniqueType": "park"
  },
  {
    "latitude": 43.2574037,
    "longitude": -82.8186434,
    "name": "Peck Memorial Park",
    "leisure": "park",
    "operator": "Village of Peck",
    "operator_type": "public",
    "uniqueType": "park"
  },
  {
    "latitude": 43.2939857,
    "longitude": -82.6318477,
    "name": "Graham Park",
    "leisure": "park",
    "operator": "City of Croswell",
    "operator_type": "public",
    "uniqueType": "park"
  },
  {
    "latitude": 44.8780383,
    "longitude": -85.6945554,
    "name": "Bingham Road Public Access",
    "leisure": "park",
    "operator": "Michigan Department of Natural Resources",
    "operator_type": "public",
    "uniqueType": "park"
  },
  {
    "latitude": 42.7863903,
    "longitude": -83.8432492,
    "name": "Lobdell Lake Public Access",
    "leisure": "park",
    "operator": "Michigan Department of Natural Resources",
    "operator_type": "public",
    "uniqueType": "park"
  },
  {
    "latitude": 42.8169324,
    "longitude": -83.7323513,
    "name": "Lake Ponemah Public Access",
    "leisure": "park",
    "operator": "Michigan Department of Natural Resources",
    "operator_type": "public",
    "uniqueType": "park"
  },
  {
    "latitude": 42.8277663,
    "longitude": -83.717434,
    "name": "Lake Fenton Public Access",
    "leisure": "park",
    "operator": "Michigan Department of Natural Resources",
    "operator_type": "public",
    "uniqueType": "park"
  },
  {
    "latitude": 43.01199,
    "longitude": -83.7194043,
    "name": "Mott Park Recreation Area",
    "leisure": "park",
    "operator": "City of Flint",
    "operator_type": "public",
    "note": "Possibly disused, community group working on it?",
    "uniqueType": "park"
  },
  {
    "latitude": 43.0059063,
    "longitude": -83.7058054,
    "name": "Mobley Park",
    "leisure": "park",
    "operator": "City of Flint",
    "operator_type": "public",
    "elevation": "229",
    "uniqueType": "park"
  },
  {
    "latitude": 42.9876747,
    "longitude": -83.6381383,
    "name": "Settlement Park",
    "leisure": "park",
    "operator": "City of Burton",
    "operator_type": "public",
    "uniqueType": "park"
  },
  {
    "latitude": 41.9391736,
    "longitude": -85.5900063,
    "name": "Noah Lake Public Access",
    "leisure": "park",
    "operator": "Michigan Department of Natural Resources",
    "operator_type": "public",
    "uniqueType": "park"
  },
  {
    "latitude": 42.0400906,
    "longitude": -85.5189584,
    "name": "Portage Lake Public Access",
    "leisure": "park",
    "operator": "Michigan Department of Natural Resources",
    "operator_type": "public",
    "uniqueType": "park"
  },
  {
    "latitude": 41.9400299,
    "longitude": -85.0010448,
    "name": "Four Corners Park",
    "leisure": "park",
    "website": "https://www.coldwater.org/Facilities/Facility/Details/Four-Corners-Park-6",
    "operator": "City of Coldwater",
    "operator_type": "public",
    "uniqueType": "park"
  },
  {
    "latitude": 41.9321313,
    "longitude": -84.9905158,
    "name": "Waterworks Park",
    "leisure": "park",
    "operator": "City of Coldwater",
    "operator_type": "public",
    "elevation": "298",
    "uniqueType": "park"
  },
  {
    "latitude": 42.2137626,
    "longitude": -83.4725558,
    "name": "Belleville Lake - East Boating Access Site",
    "leisure": "park",
    "operator": "Michigan Department of Natural Resources",
    "operator_type": "public",
    "uniqueType": "park"
  },
  {
    "latitude": 42.0955214,
    "longitude": -83.2970338,
    "name": "Oakwoods Metropark",
    "address_city": "New Boston",
    "address_zipcode": "48164",
    "address_state": "MI",
    "address_number": "32911",
    "address_street": "Willow Road",
    "leisure": "park",
    "operator": "Huron Clinton Metro Authority",
    "wikipedia": "en:Oakwoods Metropark",
    "elevation": "185",
    "uniqueType": "park"
  },
  {
    "latitude": 44.0482217,
    "longitude": -83.6871777,
    "name": "City Park",
    "leisure": "park",
    "operator": "City of Au Gres",
    "operator_type": "public",
    "uniqueType": "park"
  },
  {
    "latitude": 44.0519691,
    "longitude": -83.6888814,
    "name": "City Park and Campground",
    "leisure": "park",
    "operator": "City of Au Gres",
    "operator_type": "public",
    "uniqueType": "park"
  },
  {
    "latitude": 45.2608891,
    "longitude": -83.4393544,
    "name": "Grand Lake Boating Access Site",
    "leisure": "park",
    "operator": "Michigan Department of Natural Resources",
    "operator_type": "public",
    "description": "Boundary is approximate",
    "uniqueType": "park"
  },
  {
    "latitude": 41.7913168,
    "longitude": -85.1722062,
    "name": "Gilead Lake Park",
    "leisure": "park",
    "operator": "Branch County",
    "operator_type": "public",
    "uniqueType": "park"
  },
  {
    "latitude": 44.0758486,
    "longitude": -85.9882758,
    "name": "Bass Lake Public Access",
    "leisure": "park",
    "operator": "Michigan Department of Natural Resources",
    "operator_type": "public",
    "uniqueType": "park"
  },
  {
    "latitude": 44.1303833,
    "longitude": -85.9674893,
    "name": "Harper Lake Public Access",
    "leisure": "park",
    "operator": "Michigan Department of Natural Resources",
    "operator_type": "public",
    "uniqueType": "park"
  },
  {
    "latitude": 43.8460261,
    "longitude": -83.9187531,
    "name": "Pinconning County Park",
    "leisure": "park",
    "operator": "Bay County",
    "operator_type": "public",
    "uniqueType": "park"
  },
  {
    "latitude": 42.3348945,
    "longitude": -85.3413234,
    "name": "Fort Custer Recreation Area",
    "address_city": "Augusta",
    "address_zipcode": "49012",
    "address_state": "MI",
    "address_number": "5163",
    "address_street": "Fort Custer Drive",
    "leisure": "park",
    "phone": "+1-269-731-4200",
    "wikipedia": "en:Fort Custer Recreation Area",
    "elevation": "273",
    "uniqueType": "park"
  },
  {
    "latitude": 42.4621541,
    "longitude": -85.4784612,
    "name": "Lower Crooked Lake Park",
    "leisure": "park",
    "operator": "Prairieville Township",
    "operator_type": "public",
    "uniqueType": "park"
  },
  {
    "latitude": 42.4066647,
    "longitude": -85.4043048,
    "name": "Ross Township Park",
    "leisure": "park",
    "operator": "Ross Township",
    "operator_type": "public",
    "uniqueType": "park"
  },
  {
    "latitude": 43.8570647,
    "longitude": -82.6537967,
    "name": "Waterworks Park",
    "leisure": "park",
    "operator": "City of Harbor Beach",
    "elevation": "179",
    "uniqueType": "park"
  },
  {
    "latitude": 41.8884937,
    "longitude": -83.7827274,
    "name": "Deerfield Village Park",
    "leisure": "park",
    "operator": "Village of Deerfield",
    "operator_type": "public",
    "uniqueType": "park"
  },
  {
    "latitude": 42.2955468,
    "longitude": -85.7868167,
    "name": "Wolf Lake Fish Hatchery",
    "leisure": "park",
    "operator": "Michigan Department of Natural Resources",
    "operator_type": "public",
    "uniqueType": "park"
  },
  {
    "latitude": 41.8563871,
    "longitude": -86.3608013,
    "name": "Buchanan St. Joseph River Access Site",
    "leisure": "park",
    "operator": "Michigan Department of Natural Resources",
    "operator_type": "public",
    "uniqueType": "park"
  },
  {
    "latitude": 41.9133455,
    "longitude": -86.216128,
    "name": "Arthur Dodd Memorial Park",
    "leisure": "park",
    "elevation": "213",
    "uniqueType": "park"
  },
  {
    "latitude": 41.9818683,
    "longitude": -86.0972062,
    "name": "Rudy Park",
    "leisure": "park",
    "operator": "City of Dowagiac",
    "elevation": "238",
    "uniqueType": "park"
  },
  {
    "latitude": 41.9834794,
    "longitude": -86.090769,
    "name": "Rudolphi Wildlife Refuge",
    "leisure": "park",
    "operator": "City of Dowagiac",
    "elevation": "240",
    "uniqueType": "park"
  },
  {
    "latitude": 41.9791165,
    "longitude": -86.1121815,
    "name": "Lions Optimist Park",
    "leisure": "park",
    "website": "https://www.cityofdowagiac.com/arts_recreation/parks/lions_optimist_park.php",
    "operator": "City of Dowagiac",
    "operator_type": "public",
    "elevation": "228",
    "uniqueType": "park"
  },
  {
    "latitude": 44.0567132,
    "longitude": -82.8945969,
    "name": "Grindstone County Park",
    "leisure": "park",
    "elevation": "177",
    "uniqueType": "park"
  },
  {
    "latitude": 43.0337972,
    "longitude": -86.1594702,
    "name": "Grand Haven State Game Area",
    "leisure": "park",
    "operator": "Michigan Department of Natural Resources",
    "operator_type": "public",
    "elevation": "177",
    "uniqueType": "park"
  },
  {
    "latitude": 43.0340588,
    "longitude": -86.1161638,
    "name": "Connor Bayou County Park",
    "leisure": "park",
    "operator": "Ottawa County",
    "operator_type": "public",
    "uniqueType": "park"
  },
  {
    "latitude": 43.0887242,
    "longitude": -86.1738813,
    "name": "Petty's Bayou Public Access",
    "leisure": "park",
    "operator": "Michigan Department of Natural Resources",
    "operator_type": "public",
    "uniqueType": "park"
  },
  {
    "latitude": 44.710082,
    "longitude": -85.6203759,
    "leisure": "park",
    "uniqueType": "park"
  },
  {
    "latitude": 44.7330848,
    "longitude": -85.616338,
    "leisure": "park",
    "uniqueType": "park"
  },
  {
    "latitude": 44.7264055,
    "longitude": -85.6156761,
    "leisure": "park",
    "uniqueType": "park"
  },
  {
    "latitude": 44.6750208,
    "longitude": -85.6306662,
    "leisure": "park",
    "uniqueType": "park"
  },
  {
    "latitude": 44.7117873,
    "longitude": -85.6200942,
    "leisure": "park",
    "uniqueType": "park"
  },
  {
    "latitude": 42.6146763,
    "longitude": -82.5335459,
    "name": "Riverfront Park",
    "leisure": "park",
    "website": "https://www.cityofalgonac.org/Parks",
    "operator": "City of Algonac",
    "operator_type": "public",
    "uniqueType": "park"
  },
  {
    "latitude": 43.3827695,
    "longitude": -85.1908281,
    "name": "Lake Montcalm Public Access",
    "leisure": "park",
    "operator": "Michigan Department of Natural Resources",
    "operator_type": "public",
    "uniqueType": "park"
  },
  {
    "latitude": 43.5840404,
    "longitude": -85.5240078,
    "name": "Davis Bridge Park",
    "address_city": "Stanwood",
    "address_zipcode": "49346",
    "address_state": "MI",
    "address_number": "22170",
    "address_street": "8 Mile Road",
    "leisure": "park",
    "website": "https://www.mecostacountyparks.com/davis-bridge-park.html",
    "operator": "Mecosta County",
    "operator_type": "public",
    "description": "Owned by Consumers Energy, operated by Mecosta County as a county park",
    "uniqueType": "park"
  },
  {
    "latitude": 43.5007104,
    "longitude": -85.6279414,
    "name": "Sandy Beach County Park",
    "leisure": "park",
    "uniqueType": "park"
  },
  {
    "latitude": 43.554963,
    "longitude": -85.551117,
    "name": "Brower Park",
    "address_city": "Stanwood",
    "address_zipcode": "49346",
    "address_state": "MI",
    "address_number": "23056",
    "address_street": "Polk Road",
    "leisure": "park",
    "email": "BrowerPark@MecostaCountyParks.com",
    "phone": "+1-231-823-2561",
    "website": "https://www.mecostacountyparks.com/brower-park.html",
    "operator": "Mecosta County",
    "elevation": "264",
    "uniqueType": "park"
  },
  {
    "latitude": 43.5047939,
    "longitude": -85.5822226,
    "name": "Newaygo State Park",
    "leisure": "park",
    "elevation": "257",
    "uniqueType": "park"
  },
  {
    "latitude": 43.3725198,
    "longitude": -83.5699066,
    "name": "Harper Park",
    "leisure": "park",
    "operator": "City of Vassar",
    "operator_type": "public",
    "uniqueType": "park"
  },
  {
    "latitude": 43.3740862,
    "longitude": -83.5776123,
    "name": "Riverside Park",
    "leisure": "park",
    "operator": "City of Vassar",
    "operator_type": "public",
    "uniqueType": "park"
  },
  {
    "latitude": 43.3700805,
    "longitude": -83.5816315,
    "name": "Lions Park",
    "leisure": "park",
    "operator": "City of Vassar",
    "operator_type": "public",
    "uniqueType": "park"
  },
  {
    "latitude": 42.6107798,
    "longitude": -83.4476112,
    "name": "Union Lake Public Access",
    "leisure": "park",
    "operator": "Michigan Department of Natural Resources",
    "operator_type": "public",
    "uniqueType": "park"
  },
  {
    "latitude": 42.5792111,
    "longitude": -83.4197411,
    "name": "Twin Beach Park",
    "leisure": "park",
    "website": "https://twinbeachpark.com/",
    "operator": "Twin Beach Park Association",
    "operator_type": "private",
    "uniqueType": "park"
  },
  {
    "latitude": 42.5934385,
    "longitude": -82.7779452,
    "name": "Harley Ensign Memorial Boating Access Site",
    "leisure": "park",
    "website": "https://www.mcgi.state.mi.us/MRBIS/BASDetail.aspx?basid=A-50-001",
    "operator": "Michigan Department of Natural Resources",
    "operator_type": "public",
    "uniqueType": "park"
  },
  {
    "latitude": 42.6586812,
    "longitude": -82.7746524,
    "name": "Webber Paddle Park",
    "leisure": "park",
    "operator": "Chesterfield Charter Township",
    "operator_type": "public",
    "uniqueType": "park"
  },
  {
    "latitude": 42.6759342,
    "longitude": -82.6355365,
    "name": "Fair Haven Boating Access Site",
    "leisure": "park",
    "website": "https://www.mcgi.state.mi.us/MRBIS/BASDetail.aspx?basid=A-74-002",
    "operator": "Michigan Department of Natural Resources",
    "operator_type": "public",
    "uniqueType": "park"
  },
  {
    "latitude": 44.2116141,
    "longitude": -86.2778951,
    "name": "Stronach Township Park",
    "leisure": "park",
    "operator": "Stronach Township",
    "operator_type": "public",
    "uniqueType": "park"
  },
  {
    "latitude": 44.2847071,
    "longitude": -83.5065517,
    "name": "Dewey Durant Park",
    "address_state": "MI",
    "leisure": "park",
    "operator": "City of East Tawas",
    "operator_type": "public",
    "uniqueType": "park"
  },
  {
    "latitude": 41.9083257,
    "longitude": -83.3771325,
    "name": "Hellenberg Park",
    "leisure": "park",
    "operator": "City of Monroe",
    "operator_type": "public",
    "elevation": "175",
    "uniqueType": "park"
  },
  {
    "latitude": 42.1409503,
    "longitude": -83.2068147,
    "name": "Kennedy Park",
    "leisure": "park",
    "website": "https://www.trentonmi.org/853/City-Parks",
    "operator": "City of Trenton",
    "operator_type": "public",
    "uniqueType": "park"
  },
  {
    "latitude": 42.1283361,
    "longitude": -83.2032876,
    "name": "Lexington Park",
    "leisure": "park",
    "operator": "City of Trenton",
    "uniqueType": "park"
  },
  {
    "latitude": 46.4827857,
    "longitude": -84.4212449,
    "name": "Sherman Park",
    "leisure": "park",
    "operator": "City of Sault Ste. Marie",
    "operator_type": "public",
    "elevation": "189",
    "uniqueType": "park"
  },
  {
    "latitude": 47.1889971,
    "longitude": -88.3965279,
    "name": "Lake Linden Village Park",
    "leisure": "park",
    "uniqueType": "park"
  },
  {
    "latitude": 43.4820792,
    "longitude": -83.3922958,
    "name": "Chippewa Landing Park",
    "leisure": "park",
    "operator": "City of Caro Parks and Recreation Department",
    "operator_type": "public",
    "uniqueType": "park"
  },
  {
    "latitude": 44.0908447,
    "longitude": -84.3670046,
    "name": "M-30 Roadside Park",
    "leisure": "park",
    "operator": "Michigan Department of Natural Resources",
    "operator_type": "public",
    "description": "Picnic tables, fishing access, scenic overlook, parking lot",
    "uniqueType": "park"
  },
  {
    "latitude": 43.9698184,
    "longitude": -84.4915239,
    "name": "South Park",
    "leisure": "park",
    "operator": "City of Gladwin",
    "uniqueType": "park"
  },
  {
    "latitude": 43.9809408,
    "longitude": -84.4962443,
    "name": "North Park",
    "leisure": "park",
    "operator": "City of Gladwin",
    "operator_type": "public",
    "uniqueType": "park"
  },
  {
    "latitude": 43.873463,
    "longitude": -84.505432,
    "name": "Calhoun Park and Campground",
    "leisure": "park",
    "operator": "City of Beaverton",
    "operator_type": "public",
    "uniqueType": "park"
  },
  {
    "latitude": 44.7776485,
    "longitude": -85.5762833,
    "name": "Dutmers Natural Area",
    "leisure": "park",
    "operator": "City of Traverse City",
    "operator_type": "government",
    "uniqueType": "park"
  },
  {
    "latitude": 42.7557174,
    "longitude": -84.4299749,
    "leisure": "park",
    "operator": "Sierra Ridge Homeowners Association",
    "operator_type": "private",
    "uniqueType": "park"
  },
  {
    "latitude": 42.7599122,
    "longitude": -84.472161,
    "name": "Towar Park",
    "address_city": "East Lansing",
    "address_zipcode": "48823",
    "address_state": "MI",
    "address_number": "6146",
    "address_street": "Porter Avenue",
    "leisure": "park",
    "operator": "Meridian Charter Township",
    "operator_type": "public",
    "uniqueType": "park"
  },
  {
    "latitude": 42.440827,
    "longitude": -85.027726,
    "name": "Keehne Nature Preserve and Park",
    "leisure": "park",
    "operator": "Village of Bellevue",
    "operator_type": "public",
    "uniqueType": "park"
  },
  {
    "latitude": 42.716061,
    "longitude": -84.4327544,
    "name": "Wonch Park",
    "leisure": "park",
    "uniqueType": "park"
  },
  {
    "latitude": 42.722092,
    "longitude": -84.4321976,
    "name": "Cedar Bend Heights Neighborhood Park",
    "leisure": "park",
    "operator": "Meridian Charter Township",
    "operator_type": "public",
    "uniqueType": "park"
  },
  {
    "latitude": 42.4086302,
    "longitude": -86.2723252,
    "name": "Black River Park",
    "leisure": "park",
    "operator": "City of South Haven",
    "operator_type": "public",
    "uniqueType": "park"
  },
  {
    "latitude": 42.6451874,
    "longitude": -86.1890217,
    "name": "Schultz Park",
    "address_city": "Douglas",
    "address_zipcode": "49406",
    "address_state": "MI",
    "address_number": "301",
    "address_street": "Riverview Street",
    "leisure": "park",
    "operator": "City of Douglas",
    "operator_type": "public",
    "elevation": "180",
    "uniqueType": "park"
  },
  {
    "latitude": 42.7918547,
    "longitude": -86.1872286,
    "name": "Lake Macatawa Public Access",
    "address_city": "Holland",
    "address_zipcode": "49424",
    "address_state": "MI",
    "address_number": "1826",
    "address_street": "Ottawa Beach Road",
    "leisure": "park",
    "operator": "Michigan Department of Natural Resources",
    "operator_type": "public",
    "uniqueType": "park"
  },
  {
    "latitude": 42.7946181,
    "longitude": -86.1769438,
    "name": "Winstrom Park and Nature Preserve",
    "address_city": "Holland",
    "address_zipcode": "49424",
    "address_state": "MI",
    "address_number": "1700",
    "address_street": "Perry Street",
    "leisure": "park",
    "operator": "Park Township",
    "operator_type": "public",
    "uniqueType": "park"
  },
  {
    "latitude": 43.7090169,
    "longitude": -85.4812158,
    "name": "Swede Hill Park",
    "leisure": "park",
    "uniqueType": "park"
  },
  {
    "latitude": 43.709064,
    "longitude": -85.4822512,
    "name": "The River Walk Park",
    "leisure": "park",
    "uniqueType": "park"
  },
  {
    "latitude": 43.7106643,
    "longitude": -85.482897,
    "name": "NorthEnd Park",
    "leisure": "park",
    "uniqueType": "park"
  },
  {
    "latitude": 43.6766277,
    "longitude": -85.4668959,
    "name": "High Banks Park",
    "leisure": "park",
    "uniqueType": "park"
  },
  {
    "latitude": 43.6932538,
    "longitude": -85.4714618,
    "name": "River Street Park",
    "leisure": "park",
    "uniqueType": "park"
  },
  {
    "latitude": 43.7026984,
    "longitude": -85.4797639,
    "leisure": "park",
    "uniqueType": "park"
  },
  {
    "latitude": 46.5246861,
    "longitude": -88.1270407,
    "name": "Michigamme Township Park",
    "leisure": "park",
    "website": "https://michigammetownship.com/parks-rec.htm",
    "operator": "Michigamme Township",
    "operator_type": "public",
    "uniqueType": "park"
  },
  {
    "latitude": 41.8046434,
    "longitude": -83.5668665,
    "name": "Lewis Ansted Community Park",
    "leisure": "park",
    "email": "parkboard@bedfordmi.org",
    "phone": "+1-734-224-7329",
    "website": "https://bedfordmi.org/residents/parks___recreation/anstead_park.php",
    "operator": "Bedford Township",
    "operator_type": "public",
    "uniqueType": "park"
  },
  {
    "latitude": 43.5726702,
    "longitude": -86.0407136,
    "name": "Hesperia Dam Park",
    "leisure": "park",
    "operator": "Village of Hesperia",
    "operator_type": "public",
    "uniqueType": "park"
  },
  {
    "latitude": 43.5691691,
    "longitude": -86.0536524,
    "name": "Oxbow Park",
    "leisure": "park",
    "operator": "Newfield Township",
    "operator_type": "public",
    "uniqueType": "park"
  },
  {
    "latitude": 43.5721854,
    "longitude": -86.0433586,
    "name": "Vida Weaver Park",
    "leisure": "park",
    "operator": "Village of Hesperia",
    "operator_type": "public",
    "uniqueType": "park"
  },
  {
    "latitude": 44.0453586,
    "longitude": -83.8469616,
    "leisure": "park",
    "operator": "City of Omer",
    "operator_type": "public",
    "uniqueType": "park"
  },
  {
    "latitude": 44.0475733,
    "longitude": -83.8563082,
    "name": "Omer Boating Access Site",
    "leisure": "park",
    "operator": "Michigan Department of Natural Resources",
    "operator_type": "public",
    "uniqueType": "park"
  },
  {
    "latitude": 46.8814077,
    "longitude": -89.3053977,
    "name": "Ontonagon Township Park",
    "address_city": "Ontonagon",
    "address_zipcode": "49953",
    "address_state": "MI",
    "address_number": "700",
    "address_street": "Lakeshore Drive",
    "leisure": "park",
    "phone": "+1-906-884-2930",
    "website": "https://ontonagontownshippark.com/",
    "operator": "Ontonagon Township",
    "operator_type": "public",
    "uniqueType": "park"
  },
  {
    "latitude": 42.9876053,
    "longitude": -84.116597,
    "leisure": "park",
    "operator": "City of Corunna",
    "operator_type": "public",
    "uniqueType": "park"
  },
  {
    "latitude": 42.9852864,
    "longitude": -84.1178276,
    "leisure": "park",
    "website": "https://www.corunna-mi.gov/parksrec",
    "operator": "City of Corunna",
    "operator_type": "public",
    "uniqueType": "park"
  },
  {
    "latitude": 42.9850619,
    "longitude": -84.1290055,
    "name": "Mitchell Park",
    "leisure": "park",
    "operator": "City of Corunna",
    "operator_type": "public",
    "uniqueType": "park"
  },
  {
    "latitude": 42.9839663,
    "longitude": -84.1234197,
    "name": "McCurdy Park & Historical Village",
    "leisure": "park",
    "operator": "City of Corunna",
    "operator_type": "public",
    "uniqueType": "park"
  },
  {
    "latitude": 42.9916839,
    "longitude": -84.1597622,
    "leisure": "park",
    "operator": "City of Owosso",
    "operator_type": "public",
    "uniqueType": "park"
  },
  {
    "latitude": 42.9919865,
    "longitude": -84.1598532,
    "name": "Kiwanis Park",
    "leisure": "park",
    "operator": "City of Owosso",
    "elevation": "220",
    "uniqueType": "park"
  },
  {
    "latitude": 43.0874141,
    "longitude": -84.175674,
    "name": "Henderson Park",
    "leisure": "park",
    "operator": "Shiawassee County",
    "operator_type": "public",
    "uniqueType": "park"
  },
  {
    "latitude": 42.903579,
    "longitude": -83.9858071,
    "name": "Optomist Park",
    "leisure": "park",
    "website": "https://www.durandmi.com/city_services/parks.php",
    "operator": "City of Durand",
    "operator_type": "public",
    "uniqueType": "park"
  },
  {
    "latitude": 43.2251784,
    "longitude": -85.3171061,
    "name": "Cooper Creek Park",
    "leisure": "park",
    "website": "https://kentcountyparks.org/parks-trails/cooper-creek-spencer-forest/",
    "operator": "Kent County",
    "operator_type": "public",
    "uniqueType": "park"
  },
  {
    "latitude": 42.8837592,
    "longitude": -84.0424134,
    "name": "Geeck Road Park",
    "leisure": "park",
    "operator": "Shiawassee County",
    "operator_type": "public",
    "opening_hours": "dawn-dusk",
    "uniqueType": "park"
  },
  {
    "latitude": 42.794777,
    "longitude": -83.7046204,
    "name": "Fenton Mill Pond Park",
    "leisure": "park",
    "uniqueType": "park"
  },
  {
    "latitude": 42.7948128,
    "longitude": -83.7050601,
    "name": "Rackham Park",
    "leisure": "park",
    "website": "https://www.cityoffenton.org/Facilities/Facility/Details/Rackham-Park-7",
    "operator": "City of Fenton",
    "operator_type": "public",
    "uniqueType": "park"
  },
  {
    "latitude": 42.8017844,
    "longitude": -83.7058798,
    "name": "Bush Park",
    "leisure": "park",
    "website": "https://www.cityoffenton.org/Facilities/Facility/Details/Bush-Park-1",
    "operator": "City of Fenton",
    "operator_type": "public",
    "uniqueType": "park"
  },
  {
    "latitude": 45.0614816,
    "longitude": -83.9029604,
    "name": "Emerick Park",
    "address_city": "Hillman",
    "address_zipcode": "49746",
    "address_state": "MI",
    "address_number": "351",
    "address_street": "South State Street",
    "leisure": "park",
    "operator": "City of Hillman",
    "uniqueType": "park"
  },
  {
    "latitude": 45.9672985,
    "longitude": -84.0641185,
    "name": "De Tour Roadside Park",
    "leisure": "park",
    "operator": "Michigan Department of Transportation",
    "elevation": "179",
    "note": "boundaries are estimated, unsure how far east and west  the park should extend.",
    "uniqueType": "park"
  },
  {
    "latitude": 43.5238173,
    "longitude": -85.0705023,
    "name": "Millpond Park",
    "leisure": "park",
    "website": "https://www.facebook.com/blanchardparks/",
    "operator": "Blanchard Area Parks and Recreation Association",
    "operator_type": "private_non_profit",
    "uniqueType": "park"
  },
  {
    "latitude": 43.5832433,
    "longitude": -84.9424798,
    "name": "Majeske Landing",
    "leisure": "park",
    "email": "parks@isabellacounty.org",
    "phone": "+1-989-317-4083",
    "website": "https://www.isabellacounty.org/departments/parks-recreation/parks/majeske-landing/",
    "operator": "Isabella County",
    "operator_type": "public",
    "uniqueType": "park"
  },
  {
    "latitude": 43.5900698,
    "longitude": -84.8906751,
    "name": "Deerfield Nature Park",
    "leisure": "park",
    "website": "https://www.isabellacounty.org/departments/parks-recreation/parks/deerfield-nature-park-dnp/",
    "operator": "Isabella County",
    "operator_type": "public",
    "uniqueType": "park"
  },
  {
    "latitude": 43.5822244,
    "longitude": -84.842033,
    "name": "Meridian County Park",
    "leisure": "park",
    "website": "https://www.isabellacounty.org/departments/parks-recreation/parks/meridian-park/",
    "operator": "Isabella County",
    "operator_type": "public",
    "uniqueType": "park"
  },